City_ID,City,Lat,Lng,Max Temp,Humidity,Cloudiness,Wind Speed,Country,Date
0,ushuaia,-54.8,-68.3,53.26,50,0,3.44,AR,1675818307
1,north myrtle beach,33.816,-78.68,54.1,80,40,0.0,US,1675818232
2,cape town,-33.9258,18.4232,69.91,72,0,15.99,ZA,1675818192
3,san patricio,28.017,-97.5169,74.16,79,100,16.11,US,1675818331
4,hervey bay,-25.2986,152.8535,80.2,60,88,19.84,AU,1675818332
5,sharan,54.8167,54.0,-9.62,100,92,1.7,RU,1675818334
6,puerto ayora,-0.7393,-90.3518,79.56,92,27,8.99,EC,1675818058
7,hobart,-42.8794,147.3294,62.06,66,75,13.8,AU,1675817760
8,inowroclaw,52.7989,18.2639,29.12,78,100,5.77,PL,1675818341
9,narasannapeta,18.4167,84.05,66.92,88,5,4.16,IN,1675818342
10,ketchikan,55.3422,-131.6461,39.67,81,100,4.61,US,1675818342
11,esso,55.9333,158.7,8.83,89,100,2.64,RU,1675818343
12,rabo de peixe,37.8,-25.5833,54.91,82,40,14.97,PT,1675818348
13,punta arenas,-53.15,-70.9167,55.51,71,0,10.36,CL,1675817797
14,qaanaaq,77.484,-69.3632,-24.83,67,7,6.31,GL,1675817693
15,albany,42.6001,-73.9662,34.45,77,100,1.99,US,1675818337
16,severo-kurilsk,50.6789,156.125,24.62,54,12,9.8,RU,1675818117
17,paamiut,61.994,-49.6678,-2.4,87,52,11.9,GL,1675818352
18,busselton,-33.65,115.3333,72.36,57,0,8.3,AU,1675818353
19,samarai,-10.6167,150.6667,82.09,77,100,11.03,PG,1675818295
20,ancud,-41.8697,-73.8203,58.23,93,0,3.89,CL,1675818236
21,mar del plata,-38.0023,-57.5575,74.08,91,75,20.0,AR,1675818356
22,esperance,-33.8667,121.9,69.78,67,98,10.85,AU,1675818211
23,killybegs,54.6333,-8.45,41.65,90,12,10.71,IE,1675818358
24,bluff,-46.6,168.3333,52.81,61,67,24.94,NZ,1675817814
25,chokurdakh,70.6333,147.9167,-38.42,100,100,3.87,RU,1675817999
26,zabol,32.25,67.25,34.27,73,100,6.17,AF,1675818360
27,grand gaube,-20.0064,57.6608,79.2,83,36,3.0,MU,1675818362
28,gazli,40.1333,63.45,45.63,57,100,12.82,UZ,1675818363
29,imbituva,-25.23,-50.6044,68.92,73,91,3.58,BR,1675818364
30,hami,42.8,93.45,32.72,63,100,0.96,CN,1675817981
31,balikpapan,-1.2675,116.8289,79.79,78,75,5.75,ID,1675818007
32,new norfolk,-42.7826,147.0587,61.72,36,4,2.1,AU,1675818129
33,namatanai,-3.6667,152.4333,85.19,67,88,10.63,PG,1675818367
34,castro,-24.7911,-50.0119,62.58,92,26,5.55,BR,1675817818
35,tall kayf,37.0833,41.0667,37.74,88,73,3.09,TR,1675818372
36,caninde,-4.3589,-39.3117,74.1,72,100,2.1,BR,1675818375
37,kutum,14.2,24.6667,54.86,34,9,10.56,SD,1675818378
38,bima,-8.4667,118.7167,82.29,82,38,4.72,ID,1675818381
39,mataura,-46.1927,168.8643,54.48,75,83,10.45,NZ,1675818180
40,port blair,11.6667,92.75,78.84,73,40,6.91,IN,1675818387
41,yulara,-25.2406,130.9889,94.48,23,0,11.25,AU,1675818359
42,yellowknife,62.456,-114.3525,-1.44,84,75,5.99,CA,1675818389
43,kapaa,22.0752,-159.319,79.12,90,100,13.8,US,1675818390
44,pundaguitan,6.3711,126.1689,78.96,76,100,7.78,PH,1675818368
45,barrow,71.2906,-156.7887,-0.38,78,100,8.05,US,1675818169
46,gua musang,4.8823,101.9644,73.63,97,73,1.36,MY,1675818393
47,matagami,49.7502,-77.6328,24.91,93,100,9.22,CA,1675818394
48,labuhan,-6.8844,112.2051,76.96,89,100,8.19,ID,1675818398
49,linxia,35.6003,103.2064,27.82,93,100,4.03,CN,1675818201
50,rikitea,-23.1203,-134.9692,80.01,68,7,11.18,PF,1675818162
51,kampot,10.6167,104.1833,78.85,73,29,4.99,KH,1675818402
52,san andres,12.5847,-81.7006,80.62,78,20,13.8,CO,1675818355
53,dikson,73.5069,80.5464,-9.42,90,100,21.43,RU,1675817988
54,victoria,22.2855,114.1577,64.96,87,97,8.99,HK,1675818403
55,mahebourg,-20.4081,57.7,79.09,83,75,11.5,MU,1675818359
56,ibra,22.6906,58.5334,64.8,57,33,1.54,OM,1675818404
57,butaritari,3.0707,172.7902,81.01,80,100,21.72,KI,1675817911
58,byron bay,-28.65,153.6167,80.94,61,92,8.9,AU,1675818361
59,provideniya,64.3833,-173.3,-2.09,65,100,4.47,RU,1675818180
60,olafsvik,64.8945,-23.7142,27.77,57,100,28.72,IS,1675818407
61,tessalit,20.1986,1.0114,71.82,15,66,7.45,ML,1675818409
62,cayenne,4.9333,-52.3333,77.04,94,75,1.14,GF,1675818112
63,klungkung,-8.5333,115.4,81.28,78,91,1.57,ID,1675818410
64,vila velha,-20.3297,-40.2925,80.55,90,75,9.22,BR,1675817812
65,mogadishu,2.0371,45.3438,75.96,85,5,17.25,SO,1675818410
66,college,64.8569,-147.8028,9.59,80,75,0.0,US,1675818411
67,vostok,46.4856,135.8833,3.52,82,100,7.72,RU,1675818411
68,jamestown,42.097,-79.2353,46.04,76,100,14.97,US,1675818358
69,marzuq,14.4,46.4667,61.66,56,5,4.72,YE,1675818412
70,tiksi,71.6872,128.8694,-31.29,99,100,5.32,RU,1675818190
71,henties bay,-22.116,14.2845,64.83,89,26,4.94,NA,1675818413
72,kroya,-7.6331,109.2461,77.56,85,100,2.66,ID,1675818414
73,great falls,47.5002,-111.3008,44.42,45,0,19.57,US,1675818363
74,la ronge,55.1001,-105.2842,34.05,40,0,5.75,CA,1675818049
75,dingle,10.9995,122.6711,79.23,79,100,11.92,PH,1675818246
76,baghmara,23.795,86.2085,61.54,45,0,4.63,IN,1675818415
77,crotone,39.0851,17.1178,39.87,65,62,14.32,IT,1675818415
78,comodoro rivadavia,-45.8667,-67.5,68.14,45,3,8.39,AR,1675818416
79,kichera,55.9375,110.0997,-3.08,83,61,3.98,RU,1675818417
80,mayumba,-3.432,10.6554,77.13,86,95,1.52,GA,1675818417
81,marica,-22.9194,-42.8186,73.35,92,100,6.62,BR,1675818417
82,kudahuvadhoo,2.6708,72.8944,80.31,72,58,6.62,MV,1675818418
83,ural,55.9078,94.7464,13.66,93,100,4.12,RU,1675818418
84,batemans bay,-35.7167,150.1833,69.1,90,100,2.98,AU,1675818419
85,bengkulu,-3.8004,102.2655,77.63,73,86,4.97,ID,1675818279
86,caravelas,-17.7125,-39.2481,77.77,81,4,8.93,BR,1675818419
87,teguldet,57.3064,88.1667,9.95,95,100,6.62,RU,1675818420
88,shar,49.5886,81.0453,-4.11,100,100,2.51,KZ,1675818420
89,lebu,-37.6167,-73.65,58.98,89,0,16.93,CL,1675818222
90,kahului,20.8947,-156.47,80.96,72,40,20.71,US,1675818417
91,windhoek,-22.5594,17.0832,64.42,90,15,1.01,NA,1675818421
92,port hardy,50.6996,-127.4199,41.86,74,57,12.19,CA,1675818422
93,port alfred,-33.5906,26.891,69.19,90,100,4.0,ZA,1675818126
94,georgetown,5.4112,100.3354,78.73,78,20,4.61,MY,1675818423
95,yerbogachen,61.2767,108.0108,-23.1,100,98,2.73,RU,1675818424
96,chuy,-33.6971,-53.4616,72.25,75,45,9.33,UY,1675818142
97,samana,19.2056,-69.3369,73.53,86,11,10.92,DO,1675818231
98,wakkanai,45.4094,141.6739,25.5,59,100,16.49,JP,1675818425
99,calbuco,-41.768,-73.1273,61.81,87,0,7.0,CL,1675818426
100,vermillion,42.7794,-96.9292,35.76,98,100,5.73,US,1675818426
101,xinqing,48.2333,129.5,-1.34,90,99,2.15,CN,1675818427
102,nurota,40.5614,65.6886,47.61,55,100,7.27,UZ,1675818410
103,morehead,37.2711,-87.1764,56.98,90,100,1.01,US,1675818427
104,hithadhoo,-0.6,73.0833,81.16,71,11,8.7,MV,1675818289
105,nikolskoye,59.7035,30.7861,28.8,87,100,10.27,RU,1675818233
106,ambilobe,-13.2,49.05,73.18,95,100,1.48,MG,1675818299
107,guayaquil,-2.1667,-79.9,85.96,62,75,9.22,EC,1675818256
108,atuona,-9.8,-139.0333,78.93,76,19,15.17,PF,1675817910
109,norman wells,65.282,-126.8329,-8.99,100,77,2.64,CA,1675818435
110,joshimath,30.5667,79.5667,34.07,38,0,9.69,IN,1675818436
111,shingu,33.7333,135.9833,53.96,52,12,5.73,JP,1675818436
112,quatre cocos,-20.2078,57.7625,76.08,81,40,15.12,MU,1675818442
113,bethel,41.3712,-73.414,37.49,75,100,3.44,US,1675818404
114,hermanus,-34.4187,19.2345,67.8,82,0,11.97,ZA,1675818181
115,tilichiki,60.4667,166.1,-20.51,90,73,10.2,RU,1675818446
116,asau,46.4333,26.4,22.12,98,96,3.87,RO,1675818178
117,jaciara,-15.9653,-54.9683,72.79,84,99,0.38,BR,1675818448
118,phangnga,8.4509,98.5298,77.04,83,13,4.23,TH,1675818454
119,sioux lookout,50.1001,-91.917,5.88,98,26,3.56,CA,1675818457
120,sao joao da barra,-21.6403,-41.0511,75.31,91,100,4.36,BR,1675818466
121,belaya gora,68.5333,146.4167,-45.62,99,74,2.89,RU,1675818468
122,constitucion,-35.3333,-72.4167,59.63,73,0,9.1,CL,1675818470
123,lompoc,34.6391,-120.4579,64.69,74,40,10.36,US,1675817900
124,half moon bay,37.4636,-122.4286,60.53,67,0,14.97,US,1675818471
125,shenzhen,22.5455,114.0683,64.85,90,44,8.81,CN,1675818471
126,novorudnyy,51.5026,58.1873,-2.56,100,100,7.58,RU,1675818472
127,bibbiena,43.6965,11.8135,27.95,75,47,5.91,IT,1675818472
128,hilo,19.7297,-155.09,78.28,92,100,14.97,US,1675818473
129,niamey,13.5137,2.1098,80.2,12,99,10.16,NE,1675818473
130,alofi,-19.0595,-169.9187,80.49,83,100,8.05,NU,1675818471
131,zhigansk,66.7697,123.3711,-50.17,99,100,6.24,RU,1675818418
132,kirkwall,58.9848,-2.9587,39.96,81,100,18.41,GB,1675818474
133,saldanha,-33.0117,17.9442,62.65,89,0,15.03,ZA,1675818294
134,kodiak,57.79,-152.4072,29.71,51,0,17.27,US,1675818240
135,saint-philippe,-21.3585,55.7679,76.59,83,94,13.94,RE,1675818230
136,muhos,64.808,25.9931,22.78,97,30,4.41,FI,1675818475
137,puri,19.8,85.85,73.96,78,1,10.78,IN,1675818476
138,kaitangata,-46.2817,169.8464,58.23,54,11,15.95,NZ,1675818476
139,pudozh,61.8099,36.5345,25.77,93,100,9.69,RU,1675818477
140,khatanga,71.9667,102.5,-47.54,100,65,2.48,RU,1675818405
141,ribeira grande,38.5167,-28.7,54.77,65,1,7.0,PT,1675817988
142,benin,9.5,2.25,79.74,18,100,3.89,BJ,1675818478
143,avera,33.194,-82.5271,54.91,56,93,3.78,US,1675818479
144,necochea,-38.5473,-58.7368,71.6,79,31,16.13,AR,1675818479
145,ponta do sol,32.6667,-17.1,60.71,66,34,6.55,PT,1675818179
146,mokhsogollokh,61.4681,128.9203,-36.78,98,100,1.61,RU,1675818480
147,sinnamary,5.3833,-52.95,75.56,90,82,10.74,GF,1675818480
148,airai,-8.9266,125.4092,69.24,78,78,2.95,TL,1675818236
149,barra patuca,15.8,-84.2833,75.7,84,15,12.28,HN,1675818481
150,port elizabeth,-33.918,25.5701,69.31,90,40,5.75,ZA,1675817834
151,lewiston,44.1003,-70.2148,29.43,80,100,1.01,US,1675818328
152,kurilsk,45.2333,147.8833,23.47,54,87,5.86,RU,1675818478
153,east london,-33.0153,27.9116,70.99,84,100,12.57,ZA,1675818176
154,bac lieu,9.285,105.7244,78.87,78,46,12.84,VN,1675818484
155,baykit,61.67,96.37,3.87,98,100,1.68,RU,1675817923
156,nelson bay,-32.7167,152.15,82.09,64,61,15.01,AU,1675818477
157,menongue,-14.6585,17.691,61.74,84,100,2.53,AO,1675818485
158,carnarvon,-24.8667,113.6333,81.37,56,1,17.09,AU,1675817993
159,moreira sales,-24.0622,-53.0069,71.83,63,7,1.88,BR,1675818493
160,mugango,-1.6833,33.7,69.21,68,100,4.94,TZ,1675818495
161,avarua,-21.2078,-159.775,84.25,74,20,12.66,CK,1675817919
162,vaini,-21.2,-175.2,82.56,89,75,6.91,TO,1675818496
163,souillac,-20.5167,57.5167,77.0,83,43,13.91,MU,1675818417
164,havoysund,70.9963,24.6622,37.63,70,13,28.34,NO,1675818296
165,saeby,57.3319,10.5225,39.13,95,98,11.9,DK,1675818501
166,tasiilaq,65.6145,-37.6368,-4.52,35,0,36.13,GL,1675817924
167,bredasdorp,-34.5322,20.0403,66.07,77,21,8.23,ZA,1675818503
168,quelimane,-17.8786,36.8883,74.64,94,98,3.98,MZ,1675818508
169,longyearbyen,78.2186,15.6401,22.84,80,75,18.41,SJ,1675818240
170,jupiter,26.9342,-80.0942,74.03,70,100,7.0,US,1675818047
171,cockburn town,21.4612,-71.1419,77.86,75,0,22.62,TC,1675818337
172,melilla,35.2937,-2.9383,53.98,87,75,8.05,ES,1675818512
173,sretensk,52.2453,117.7093,-18.26,100,90,1.21,RU,1675818513
174,vilhena,-12.7406,-60.1458,68.83,96,26,0.4,BR,1675818518
175,buraydah,26.326,43.975,48.65,42,100,6.38,SA,1675818252
176,saint george,37.1041,-113.5841,50.95,40,0,9.22,US,1675818526
177,shitanjing,39.2342,106.3439,27.27,45,100,6.76,CN,1675818529
178,iskele,39.484,26.9278,30.29,74,20,8.05,TR,1675818529
179,namibe,-15.1961,12.1522,70.14,74,95,5.53,AO,1675818171
180,torbay,47.6666,-52.7314,25.57,85,75,25.32,CA,1675818117
181,carballo,43.213,-8.691,43.02,72,99,8.37,ES,1675818420
182,prince rupert,54.3161,-130.3201,39.29,87,100,25.32,CA,1675818074
183,otane,-39.8833,176.6333,76.53,45,99,7.76,NZ,1675818531
184,eresos,39.1667,25.9333,31.89,68,14,24.02,GR,1675818532
185,kavaratti,10.5669,72.642,79.65,70,100,11.23,IN,1675818532
186,thompson,55.7435,-97.8558,3.36,78,100,3.44,CA,1675818240
187,salinas,36.6777,-121.6555,60.64,73,0,8.05,US,1675818497
188,flinders,-34.5833,150.8552,69.39,92,100,5.95,AU,1675818314
189,bulgan,48.8125,103.5347,-3.01,93,9,3.76,MN,1675818533
190,sangar,63.9242,127.4739,-39.84,97,100,2.55,RU,1675818534
191,bandarbeyla,9.4942,50.8122,77.14,74,98,15.9,SO,1675818298
192,kununurra,-15.7667,128.7333,89.58,58,7,6.91,AU,1675818535
193,san quintin,30.4833,-115.95,60.94,48,0,6.31,MX,1675818473
194,canutama,-6.5339,-64.3831,73.67,97,100,1.7,BR,1675818536
195,broken hill,-31.95,141.4333,83.7,18,0,11.97,AU,1675818475
196,pemberton,50.3164,-122.8027,40.69,93,72,7.29,CA,1675818537
197,solnechnyy,50.7214,136.6319,-6.03,84,68,7.83,RU,1675818538
198,dakar,14.6937,-17.4441,67.08,82,0,9.22,SN,1675818275
199,lorengau,-2.0226,147.2712,78.01,93,100,13.78,PG,1675817873
200,beringovskiy,63.05,179.3167,-16.67,94,92,7.7,RU,1675818256
201,tucuman,-26.8241,-65.2226,82.4,74,20,5.75,AR,1675817985
202,kiruna,67.8557,20.2251,29.32,80,97,19.57,SE,1675818539
203,ahuimanu,21.4447,-157.8378,80.31,78,75,20.71,US,1675818540
204,nome,64.5011,-165.4064,-2.13,78,0,0.0,US,1675817975
205,dharchula,29.85,80.5333,44.91,30,0,8.88,IN,1675818540
206,antofagasta,-23.65,-70.4,70.88,82,100,5.1,CL,1675818299
207,asilah,35.465,-6.0348,49.96,79,97,9.66,MA,1675818541
208,maniitsoq,65.4167,-52.9,0.23,90,100,10.27,GL,1675818542
209,lavrentiya,65.5833,-171.0,-13.85,91,97,2.71,RU,1675817980
210,sargatskoye,55.6101,73.4972,-5.01,100,90,5.17,RU,1675818545
211,fort-shevchenko,44.5086,50.263,34.77,91,100,27.78,KZ,1675818546
212,coffs harbour,-30.3,153.1333,78.76,61,75,8.05,AU,1675818548
213,buin,-33.7333,-70.75,82.44,48,0,2.73,CL,1675818549
214,tuatapere,-46.1333,167.6833,54.52,66,81,14.56,NZ,1675818530
215,te anau,-45.4167,167.7167,57.7,44,48,11.39,NZ,1675818295
216,batagay-alyta,67.8006,130.4114,-34.33,100,98,0.83,RU,1675818551
217,kaina,12.6374,8.5873,67.64,21,100,8.41,NG,1675818559
218,dobric,44.7019,19.5814,26.8,64,82,5.39,RS,1675818563
219,lichinga,-13.3128,35.2406,61.65,95,100,2.04,MZ,1675818564
220,sitka,57.0531,-135.33,39.09,75,20,3.44,US,1675818565
221,koumac,-20.5667,164.2833,79.16,86,100,6.17,NC,1675818569
222,fortuna,40.5982,-124.1573,54.52,71,75,0.0,US,1675818052
223,luderitz,-26.6481,15.1594,65.5,83,38,19.08,NA,1675817978
224,prieska,-29.6641,22.7474,72.07,59,76,4.56,ZA,1675818572
225,sabla,12.7525,4.7077,73.15,15,100,10.47,NG,1675818572
226,urumqi,43.801,87.6005,14.95,93,100,2.24,CN,1675818573
227,oksfjord,70.2396,22.3479,39.38,80,14,13.69,NO,1675818415
228,tomatlan,19.9333,-105.25,70.52,69,0,3.29,MX,1675818115
229,omboue,-1.5746,9.2618,77.29,87,100,4.05,GA,1675818407
230,estevan,49.1334,-102.9842,34.14,89,100,10.92,CA,1675818575
231,mount gambier,-37.8333,140.7667,70.27,46,5,10.16,AU,1675818112
232,do gonbadan,30.3586,50.7981,48.94,92,100,3.04,IR,1675818576
233,faya,18.3851,42.4509,53.71,67,6,3.4,SA,1675818245
234,umm kaddadah,13.6017,26.6876,59.52,28,11,18.61,SD,1675818352
235,talnakh,69.4865,88.3972,-7.62,98,100,6.78,RU,1675817992
236,guerrero negro,27.9769,-114.0611,68.72,23,0,3.98,MX,1675818336
237,chapais,49.7834,-74.8492,20.98,95,100,10.56,CA,1675818304
238,ringkobing,56.0901,8.244,38.01,90,99,11.79,DK,1675818579
239,cherskiy,68.75,161.3,-30.41,97,100,5.35,RU,1675818280
240,santander,43.4647,-3.8044,44.58,77,20,7.0,ES,1675818580
241,fort nelson,58.8053,-122.7002,23.95,75,5,2.48,CA,1675818539
242,turukhansk,65.8167,87.9833,2.46,96,100,6.2,RU,1675818585
243,airdrie,55.866,-3.9803,43.68,90,92,8.01,GB,1675818585
244,ostrovnoy,68.0531,39.5131,31.77,76,5,24.76,RU,1675818235
245,anzio,41.4853,12.6179,38.98,60,60,8.88,IT,1675818587
246,nacozari,25.3366,-108.2574,70.02,22,100,12.5,MX,1675818588
247,tual,-5.6667,132.75,81.28,79,100,22.91,ID,1675818589
248,santa luzia,-19.7697,-43.8514,71.94,78,40,10.36,BR,1675818316
249,xingyi,24.1877,102.817,49.1,57,0,3.29,CN,1675818590
250,cabo san lucas,22.8909,-109.9124,72.52,58,40,4.61,MX,1675818591
251,sao filipe,14.8961,-24.4956,68.41,67,17,9.31,CV,1675818238
252,brownsville,25.9018,-97.4975,75.2,88,100,12.66,US,1675818306
253,bhimunipatnam,17.8833,83.4333,67.51,82,14,3.15,IN,1675818591
254,rawson,-43.3002,-65.1023,65.89,58,5,8.61,AR,1675818592
255,jiaozhou,36.2839,120.0033,37.49,45,100,9.98,CN,1675818592
256,bereda,43.2686,-7.5406,31.14,88,93,4.23,ES,1675818593
257,casma,-41.0082,-73.1244,67.28,76,0,5.17,CL,1675818593
258,kokopo,-4.352,152.2633,82.65,72,100,5.95,PG,1675818594
259,berdigestyakh,62.0989,126.6992,-35.61,100,100,1.7,RU,1675818293
260,ust-tsilma,65.441,52.1498,24.69,93,100,10.54,RU,1675818595
261,barranca,-10.75,-77.7667,73.71,76,41,5.55,PE,1675818341
262,carbonia,39.1672,8.5222,47.05,62,79,15.9,IT,1675818596
263,kulhudhuffushi,6.6221,73.07,80.01,70,57,6.4,MV,1675818597
264,ucluelet,48.9329,-125.5528,44.91,78,28,19.42,CA,1675818053
265,aksu,41.1231,80.2644,22.77,71,5,5.68,CN,1675818394
266,alindao,5.0267,21.2088,73.83,21,17,2.26,CF,1675818597
267,tecpan,14.7623,-90.9947,57.61,75,0,1.97,GT,1675818598
268,urcos,-13.6861,-71.6228,55.29,83,88,6.06,PE,1675818599
269,clyde river,70.4692,-68.5914,-31.05,97,93,2.86,CA,1675818599
270,nouakchott,18.0858,-15.9785,67.93,31,100,13.27,MR,1675818353
271,nanortalik,60.1432,-45.2371,4.46,72,8,19.35,GL,1675818174
272,mairi,-11.7114,-40.1489,72.81,56,54,7.23,BR,1675818600
273,gore,-46.1028,168.9436,54.84,70,66,12.48,NZ,1675818601
274,petropavlovsk-kamchatskiy,53.0452,158.6483,9.19,56,20,4.47,RU,1675818468
275,nerchinskiy zavod,51.3088,119.61,-21.01,99,91,1.43,RU,1675818605
276,sobolevo,54.4299,31.8996,4.23,99,64,3.15,RU,1675818615
277,calamar,10.2511,-74.9146,79.48,72,5,6.22,CO,1675818618
278,imatra,61.1719,28.7524,37.11,90,100,3.0,FI,1675818618
279,rakiv lis,51.6217,24.9243,24.35,96,24,4.68,UA,1675818619
280,haines junction,60.7522,-137.5108,21.87,95,25,4.29,CA,1675818530
281,dahuk,36.8695,42.994,36.61,94,99,6.31,IQ,1675818621
282,urucui,-7.2294,-44.5561,74.66,89,93,1.16,BR,1675818634
283,victoria point,-27.5833,153.3,86.43,53,92,7.0,AU,1675818516
284,karasjok,69.4719,25.5112,20.79,83,96,10.47,NO,1675818638
285,port lincoln,-34.7333,135.8667,72.82,62,7,11.43,AU,1675817960
286,bilma,18.6853,12.9164,67.93,20,100,6.22,NE,1675818263
287,chililabombwe,-12.3648,27.8229,61.79,98,100,4.68,ZM,1675818640
288,ukiah,39.1502,-123.2078,59.38,60,0,0.0,US,1675818469
289,leningradskiy,69.3833,178.4167,-23.98,96,100,4.97,RU,1675818107
290,alyangula,-13.8483,136.4192,85.82,66,100,3.29,AU,1675818643
291,murgab,37.4966,61.9714,59.92,50,100,24.49,TM,1675818649
292,san jose,37.3394,-121.895,61.0,53,40,8.05,US,1675818504
293,gamba,-2.65,10.0,76.48,83,57,1.79,GA,1675818650
294,kijang,35.2442,129.2139,45.64,58,5,3.36,KR,1675818651
295,vestmannaeyjar,63.4427,-20.2734,32.47,62,100,35.16,IS,1675818550
296,hinton,53.4001,-117.5857,27.55,97,100,1.52,CA,1675818651
297,kaspiyskiy,45.3929,47.3707,27.41,96,100,17.94,RU,1675818652
298,hualmay,-11.0964,-77.6139,73.47,82,25,7.18,PE,1675818652
299,hecun,36.5333,114.1111,36.61,48,100,8.59,CN,1675818653
300,canalete,8.6761,-76.2042,78.21,83,64,11.92,CO,1675818654
301,moose factory,51.2585,-80.6094,6.78,72,75,14.97,CA,1675818654
302,cidreira,-30.1811,-50.2056,75.76,79,26,13.06,BR,1675818655
303,manta,-0.95,-80.7333,82.18,78,75,5.75,EC,1675818655
304,superior,46.7208,-92.1041,32.09,62,0,12.66,US,1675818656
305,monte patria,-30.6919,-70.9467,77.86,49,0,3.98,CL,1675818656
306,ritchie,-29.038,24.6028,68.0,70,100,0.69,ZA,1675818657
307,semnan,35.5729,53.3971,40.98,55,4,2.33,IR,1675818657
308,hambantota,6.1241,81.1185,75.54,100,20,6.91,LK,1675818658
309,iquitos,-3.7481,-73.2472,77.04,83,75,2.3,PE,1675818659
310,chapleau,47.8405,-83.4034,24.46,94,100,7.61,CA,1675818660
311,makakilo city,21.3469,-158.0858,79.12,69,75,20.71,US,1675818209
312,saint-augustin,51.226,-58.6502,-3.78,87,18,4.81,CA,1675818114
313,pevek,69.7008,170.3133,-21.53,92,100,2.91,RU,1675818017
314,hirara,24.8,125.2833,70.18,72,92,16.37,JP,1675818413
315,salinopolis,-0.6136,-47.3561,78.15,86,100,9.13,BR,1675818669
316,gat,31.61,34.7642,52.09,100,60,19.44,IL,1675818672
317,indiaroba,-11.5192,-37.5117,74.84,80,99,3.85,BR,1675818673
318,muscat,23.6139,58.5922,74.91,56,7,4.63,OM,1675818674
319,richards bay,-28.783,32.0377,73.2,96,4,3.2,ZA,1675818174
320,codrington,-38.2667,141.9667,66.18,58,75,15.26,AU,1675818411
321,villazon,-22.0866,-65.5942,51.64,64,100,11.83,BO,1675818676
322,sao miguel do araguaia,-13.275,-50.1628,73.54,87,62,1.3,BR,1675818677
323,haicheng,40.8516,122.7475,24.76,50,0,2.71,CN,1675818677
324,dunedin,-45.8742,170.5036,59.07,53,55,16.2,NZ,1675818679
325,huntsville,34.7304,-86.5861,62.4,63,40,7.0,US,1675818429
326,tshikapa,-6.4167,20.8,68.43,89,100,1.03,CD,1675818680
327,liku,-0.7275,119.8922,75.36,91,100,1.68,ID,1675818681
328,halifax,44.6453,-63.5724,25.21,77,6,5.99,CA,1675818546
329,bagdarin,54.4333,113.6,-8.77,93,8,3.4,RU,1675818688
330,lazaro cardenas,17.9583,-102.2,76.17,75,0,5.84,MX,1675818690
331,shangzhi,45.2167,127.9667,7.79,87,100,5.99,CN,1675818691
332,geraldton,-28.7667,114.6,75.61,64,0,13.8,AU,1675818173
333,eureka,40.8021,-124.1637,57.67,76,96,4.47,US,1675818703
334,atar,20.5169,-13.0499,59.92,28,4,11.5,MR,1675818704
335,oriximina,-1.7656,-55.8661,75.45,93,99,1.72,BR,1675818708
336,dongsheng,39.8161,109.9776,20.75,56,100,8.21,CN,1675818709
337,balaipungut,1.05,101.2833,78.21,84,93,0.81,ID,1675818713
338,pishin,30.5803,66.9961,48.96,33,100,1.05,PK,1675818714
339,pimentel,-6.8367,-79.9342,75.49,78,0,17.27,PE,1675818715
340,birjand,32.8663,59.2211,45.54,80,26,5.82,IR,1675818716
341,arraial do cabo,-22.9661,-42.0278,75.49,90,100,4.0,BR,1675818493
342,kaduqli,11.0167,29.7167,69.46,19,5,14.92,SD,1675818717
343,meiktila,20.8667,95.8667,63.05,40,2,4.83,MM,1675818718
344,madras,13.0878,80.2785,73.38,88,20,2.3,IN,1675818718
345,florence,43.7667,11.25,37.51,48,0,6.91,IT,1675818466
346,melk,48.2274,15.3319,26.78,83,30,2.44,AT,1675818719
347,kruisfontein,-34.0033,24.7314,66.88,82,100,4.7,ZA,1675818298
348,kirksville,40.1948,-92.5833,40.59,49,0,4.61,US,1675818481
349,sampit,-2.5333,112.95,80.55,78,100,0.34,ID,1675818720
350,nara,34.6851,135.8049,47.97,56,8,7.63,JP,1675818721
351,rabaul,-4.1967,152.1721,82.96,73,100,5.01,PG,1675818723
352,yekaterinovka,52.0508,44.3451,3.33,96,10,8.3,RU,1675818725
353,pacific grove,36.6177,-121.9166,59.02,83,0,14.0,US,1675818726
354,truth or consequences,33.1284,-107.2528,40.15,65,0,16.11,US,1675818728
355,bouar,5.934,15.596,66.38,19,16,4.59,CF,1675818728
356,touros,-5.1989,-35.4608,79.27,71,100,12.5,BR,1675818414
357,komsomolskiy,40.4272,71.7189,32.72,80,98,9.22,UZ,1675818371
358,anadyr,64.75,177.4833,-24.52,74,0,11.18,RU,1675818651
359,saskylakh,71.9167,114.0833,-27.98,100,100,1.25,RU,1675818598
360,srednekolymsk,67.45,153.6833,-28.52,97,100,5.03,RU,1675818731
361,kavieng,-2.5744,150.7967,81.66,79,100,8.7,PG,1675818321
362,varna,43.2167,27.9167,29.28,80,100,5.75,BG,1675818510
363,santa isabel do rio negro,-0.4139,-65.0192,75.16,90,41,2.26,BR,1675818747
364,ust-nera,64.5667,143.2,-36.22,98,79,0.85,RU,1675818750
365,tuktoyaktuk,69.4541,-133.0374,-21.62,92,100,4.38,CA,1675818752
366,chumikan,54.7183,135.315,-19.64,82,70,11.92,RU,1675818752
367,auki,-8.7676,160.7034,83.48,77,100,5.84,SB,1675818753
368,upernavik,72.7868,-56.1549,-21.33,97,60,3.29,GL,1675818189
369,umm lajj,25.0213,37.2685,61.29,56,100,9.26,SA,1675818754
370,inhambane,-23.865,35.3833,77.72,88,12,7.27,MZ,1675818469
371,beira,-19.8436,34.8389,76.44,91,100,3.51,MZ,1675818565
372,charters towers,-20.1,146.2667,85.59,56,92,10.45,AU,1675818755
373,aykhal,66.0,111.5,-37.98,100,96,3.09,RU,1675818188
374,bambous virieux,-20.3428,57.7575,76.21,80,33,15.17,MU,1675818763
375,freeport,40.6576,-73.5832,41.99,82,75,14.97,US,1675818766
376,laguna,38.421,-121.4238,57.92,59,0,0.0,US,1675818535
377,challapata,-18.9,-66.7667,50.16,70,96,4.27,BO,1675818766
378,straumen,63.8709,11.2999,30.2,89,69,2.66,NO,1675818638
379,berlevag,70.8578,29.0864,33.8,80,40,24.16,NO,1675818661
380,khandbari,27.3747,87.2039,47.91,73,38,4.12,NP,1675818769
381,lagoa,39.05,-27.9833,55.9,58,100,15.39,PT,1675818536
382,marsh harbour,26.5412,-77.0636,71.22,62,0,18.23,BS,1675818769
383,kushima,31.4583,131.2333,57.33,80,98,2.93,JP,1675818770
384,kilindoni,-7.9139,39.6668,81.28,78,100,11.92,TZ,1675818770
385,qaqortoq,60.7167,-46.0333,-12.37,67,0,7.14,GL,1675818771
386,burgeo,47.6167,-57.6152,17.92,79,100,19.51,CA,1675818771
387,ribas do rio pardo,-20.4431,-53.7592,71.78,93,34,1.5,BR,1675818772
388,romodanovo,54.4275,45.3296,-6.83,100,100,1.83,RU,1675818772
389,lata,40.1629,-8.3327,46.92,77,45,4.18,PT,1675817988
390,narsaq,60.9167,-46.05,-7.38,66,0,7.9,GL,1675818773
391,tibati,6.4667,12.6333,65.97,21,42,3.09,CM,1675818773
392,waddan,29.1614,16.139,50.11,51,92,17.6,LY,1675818767
393,port hawkesbury,45.6169,-61.3485,27.18,86,75,4.61,CA,1675818718
394,marawi,7.9986,124.2928,73.08,67,100,2.15,PH,1675818774
395,vrangel,42.7297,133.0839,23.27,51,4,7.14,RU,1675818774
396,bilibino,68.0546,166.4372,-34.6,98,100,1.66,RU,1675818592
397,hamilton,39.1834,-84.5333,53.89,88,100,10.36,US,1675818719
398,whitehorse,60.7161,-135.0538,15.03,96,61,6.26,CA,1675818525
399,vanimo,-2.6741,141.3028,77.07,95,100,7.49,PG,1675818531
400,saint-pierre,-21.3393,55.4781,76.68,78,72,4.61,RE,1675818414
401,sawtell,-30.3833,153.1,78.82,61,75,8.05,AU,1675818776
402,san cristobal,7.7669,-72.225,69.98,77,9,1.57,VE,1675818471
403,sorland,67.667,12.6934,42.66,78,100,46.44,NO,1675818491
404,kaputa,-8.4689,29.6619,67.95,82,100,4.61,ZM,1675818776
405,savelugu,9.6244,-0.8253,86.88,36,24,4.65,GH,1675818777
406,akyab,20.15,92.9,64.18,62,0,5.01,MM,1675818777
407,abu dhabi,24.4667,54.3667,75.22,36,0,9.22,AE,1675817953
408,estelle,29.8458,-90.1067,72.0,81,75,3.44,US,1675818778
409,senno,59.5336,33.9167,25.27,93,100,10.11,RU,1675818778
410,pangai,-19.8,-174.35,79.61,80,78,19.71,TO,1675818778
411,sandwick,60.0,-1.25,44.42,70,100,27.63,GB,1675818779
412,camargo,27.6667,-105.1667,64.47,19,64,4.47,MX,1675818779
413,bagar,28.1874,75.5005,54.86,43,0,3.22,IN,1675818779
414,kotka,60.4664,26.9458,33.06,95,100,16.44,FI,1675818780
415,matadi,-5.8167,13.45,75.7,95,49,3.09,CD,1675818780
416,salaga,8.5508,-0.5188,84.52,57,27,9.55,GH,1675818781
417,seymchan,62.8833,152.4333,-23.55,93,100,1.97,RU,1675818781
418,luorong,24.4058,109.6086,54.75,91,100,4.9,CN,1675818781
419,havre-saint-pierre,50.2334,-63.5986,17.6,78,75,9.22,CA,1675818292
420,qasigiannguit,68.8193,-51.1922,-16.35,98,100,1.72,GL,1675818656
421,klaksvik,62.2266,-6.589,47.32,82,100,56.04,FO,1675818563
422,panaba,21.2833,-88.2667,76.78,68,0,10.8,MX,1675818785
423,itarema,-2.9248,-39.9167,77.68,83,100,9.01,BR,1675818787
424,mittagong,-34.45,150.45,61.2,98,100,3.42,AU,1675818792
425,mahon,39.8885,4.2658,50.56,87,100,17.27,ES,1675818541
426,san pedro de uraba,8.2752,-76.3764,76.5,92,54,6.46,CO,1675818795
427,bell ville,-32.6259,-62.6887,78.67,30,0,5.19,AR,1675818800
428,markova,48.6758,24.4138,18.43,99,100,2.57,UA,1675818802
429,faanui,-16.4833,-151.75,81.1,73,29,11.99,PF,1675818409
430,kingaroy,-26.5333,151.8333,84.09,36,50,12.33,AU,1675818813
431,roma,43.2128,-75.4557,41.86,87,100,8.05,US,1675818783
432,vale da amoreira,39.0697,-7.6985,42.93,79,82,6.46,PT,1675818814
433,bathsheba,13.2167,-59.5167,75.81,88,75,19.57,BB,1675818771
434,solon,41.3898,-81.4412,50.0,80,40,8.05,US,1675818814
435,coahuayana,18.7333,-103.6833,74.08,83,13,3.09,MX,1675818815
436,riyadh,24.6877,46.7219,55.54,41,17,5.77,SA,1675818651
437,tura,25.5198,90.2201,61.03,50,93,3.58,IN,1675818303
438,arlit,18.7369,7.3853,70.88,16,100,2.28,NE,1675818735
439,xuanwu,32.069,118.8138,44.85,65,100,10.92,CN,1675818820
440,nouadhibou,20.931,-17.0347,62.08,72,0,21.21,MR,1675818821
441,tashtyp,52.7939,89.8983,5.29,99,69,3.22,RU,1675818821
442,goderich,43.7501,-81.7165,35.91,91,100,18.1,CA,1675818408
443,kaeo,-35.1,173.7833,74.84,50,12,6.04,NZ,1675818822
444,inirida,3.8653,-67.9239,75.78,90,85,0.2,CO,1675818305
445,kenai,60.5544,-151.2583,28.49,93,100,5.75,US,1675818822
446,surgut,61.25,73.4167,-21.82,74,0,4.0,RU,1675818829
447,naze,28.3667,129.4833,60.55,74,100,14.56,JP,1675818830
448,port macquarie,-31.4333,152.9167,73.89,66,86,4.7,AU,1675818830
449,tiquisio,8.5597,-74.2669,83.1,53,26,2.82,CO,1675818831
450,taoudenni,22.6783,-3.9836,64.85,19,100,11.39,ML,1675818832
451,tombouctou,20.0,-3.0,66.69,19,0,11.9,ML,1675818832
452,riverton,40.5219,-111.9391,36.34,75,0,7.0,US,1675818832
453,katsuura,35.1333,140.3,51.48,71,97,17.18,JP,1675818833
454,esna,25.2934,32.554,49.6,43,91,8.57,EG,1675818833
455,fairbanks,64.8378,-147.7164,9.61,80,75,0.0,US,1675818663
456,kidodi,-7.6036,37.0044,70.99,97,100,2.55,TZ,1675818834
457,mattawa,46.7379,-119.9028,51.8,76,99,7.18,US,1675818834
458,barcelos,41.5388,-8.6151,49.68,57,91,13.58,PT,1675818834
459,tornio,65.8481,24.1466,24.82,93,19,5.88,FI,1675818835
460,soyo,-6.1349,12.3689,79.07,83,83,7.49,AO,1675818562
461,oktyabrskiy,54.4815,53.471,-9.18,100,91,1.52,RU,1675818835
462,ostersund,63.1792,14.6357,32.45,86,98,9.22,SE,1675818527
463,mwene-ditu,-7.0,23.45,66.18,92,100,1.3,CD,1675818836
464,dolores,-36.3132,-57.6792,71.85,86,1,14.74,AR,1675818836
465,isangel,-19.55,169.2667,80.31,82,100,4.65,VU,1675818836
466,saint-leu,-21.15,55.2833,76.06,74,64,3.4,RE,1675818837
467,buchanan,5.8808,-10.0467,77.52,90,100,5.21,LR,1675818837
468,jalu,29.0331,21.5482,49.55,57,93,7.31,LY,1675818837
469,ilo,-17.6394,-71.3375,73.47,85,60,5.68,PE,1675818838
470,galle,6.0367,80.217,75.07,90,91,2.84,LK,1675818572
471,solnechnogorsk,56.1833,36.9833,19.24,94,62,6.87,RU,1675818838
472,bolshoye selo,57.7177,38.9334,12.24,94,88,8.32,RU,1675818839
473,agirish,61.9247,63.0231,-0.96,96,100,7.63,RU,1675818839
474,severnyy,50.677,36.5532,8.64,92,0,8.99,RU,1675818839
475,wamba,8.9333,8.6,73.71,19,98,4.59,NG,1675818840
476,mezen,65.8522,44.24,34.0,99,100,12.03,RU,1675818717
477,tondano,1.3038,124.9112,68.09,96,100,1.54,ID,1675818840
478,ugoofaaru,5.6667,73.0,80.42,67,17,6.64,MV,1675818543
479,at-bashi,41.1702,75.8106,1.74,56,18,5.1,KG,1675818841
480,pisco,-13.7,-76.2167,75.25,83,0,13.8,PE,1675818589
481,lundazi,-12.2929,33.1782,63.55,96,100,5.21,ZM,1675818842
482,pangnirtung,66.1451,-65.7125,-28.64,83,6,5.39,CA,1675818845
483,daan,33.0558,106.2958,43.83,93,100,3.49,CN,1675818847
484,aden,12.7794,45.0367,75.9,68,10,9.73,YE,1675818593
485,polis,35.0367,32.4264,42.62,83,17,9.78,CY,1675818852
486,jiwani,25.05,61.7417,71.73,67,0,6.35,PK,1675818853
487,ballina,-28.8667,153.5667,81.01,70,100,8.52,AU,1675818631
488,raduzhnyy,62.0961,77.475,-18.45,100,74,5.3,RU,1675818864
489,pringsewu,-5.3582,104.9744,75.78,91,99,0.36,ID,1675818864
490,eldoret,0.5204,35.2699,56.52,68,5,7.58,KE,1675818865
491,roebourne,-20.7833,117.1333,90.46,45,46,6.15,AU,1675818865
492,ulaangom,49.9811,92.0667,-16.06,93,100,2.91,MN,1675818876
493,kibala,9.1104,18.3463,76.73,16,7,4.7,TD,1675818876
494,kirakira,-10.4544,161.9205,82.67,83,100,10.54,SB,1675818662
495,nemuro,43.3236,145.575,25.81,64,34,5.26,JP,1675818885
496,birao,10.2849,22.7882,73.74,16,14,11.86,CF,1675818890
497,margate,51.3813,1.3862,40.15,66,100,3.42,GB,1675818659
498,yumen,40.2833,97.2,24.91,60,34,11.52,CN,1675818277
499,dajal,29.5577,70.3762,56.05,42,13,7.78,PK,1675818891
500,aragarcas,-15.8975,-52.2508,74.88,83,39,1.5,BR,1675818892
501,nalut,30.3333,10.85,55.81,63,100,9.73,LY,1675818892
502,korla,41.7597,86.1469,28.54,86,15,1.45,CN,1675818893
503,pokrovsk,48.282,37.1758,16.11,81,14,17.13,UA,1675818893
504,ilulissat,69.2167,-51.1,-16.58,76,100,5.75,GL,1675818531
505,lima,-12.0432,-77.0282,78.91,74,0,13.8,PE,1675818476
506,ternuvate,47.8305,36.1276,18.14,76,99,17.67,UA,1675818894
507,sungai padi,6.0851,101.8766,80.51,87,27,1.97,TH,1675818894
508,hudson bay,52.85,-102.3842,32.81,90,7,9.04,CA,1675818895
509,atambua,-9.1061,124.8925,79.27,77,68,3.09,ID,1675818895
510,oranjemund,-28.55,16.4333,63.32,90,98,16.73,NA,1675818895
511,mayo,38.8876,-76.5119,48.2,80,0,8.05,US,1675818353
512,araouane,18.9048,-3.5265,68.23,18,0,12.75,ML,1675818466
513,vanavara,60.34,102.2797,-3.17,99,100,2.3,RU,1675818896
514,san benito,36.6166,-121.0844,48.58,64,100,3.15,US,1675818896
515,alpatovo,43.7028,45.2415,23.99,95,100,13.09,RU,1675818897
516,kisumu,-0.1022,34.7617,66.78,62,73,3.0,KE,1675818897
517,dina,52.9335,-110.0849,19.4,97,82,3.42,CA,1675818898
518,mogzon,51.7435,111.9606,-8.84,100,98,1.34,RU,1675818898
519,krasnouralsk,58.3638,60.0407,4.93,91,14,8.95,RU,1675818484
520,baherden,38.4362,57.4316,50.27,48,100,6.38,TM,1675818899
521,ahipara,-35.1667,173.1667,72.39,53,36,7.11,NZ,1675818650
522,madang,-5.2246,145.7966,82.11,76,100,7.38,PG,1675818899
523,calama,-22.4667,-68.9333,64.89,48,40,16.11,CL,1675818899
524,salalah,17.0151,54.0924,67.84,74,98,3.47,OM,1675818900
525,dwarka,22.2394,68.9678,69.57,69,19,9.82,IN,1675818900
526,biak,-0.9131,122.8766,78.3,80,100,5.03,ID,1675818657
527,ust-kuyga,70.0167,135.6,-53.16,99,72,5.73,RU,1675818507
528,padang,-0.9492,100.3543,78.98,66,90,3.24,ID,1675818901
529,hirosaki,40.5931,140.4725,35.1,76,100,2.28,JP,1675818903
530,doka,13.5167,35.7667,70.77,28,5,12.44,SD,1675818904
531,kinablangan,7.6947,126.5503,80.1,75,62,6.04,PH,1675818916
532,noumea,-22.2763,166.4572,89.58,99,95,9.98,NC,1675818750
533,frisco,33.1507,-96.8236,49.55,92,100,8.99,US,1675818689
534,khuzhir,53.1939,107.3397,6.98,90,100,4.18,RU,1675818918
535,sakaiminato,35.55,133.2333,49.14,65,83,11.03,JP,1675818918
536,rio grande,-32.035,-52.0986,74.1,72,0,13.58,BR,1675818919
537,den helder,52.9599,4.7593,30.97,93,21,2.3,NL,1675818930
538,lagos,6.5833,3.75,77.74,86,100,3.4,NG,1675818931
539,doha,25.2867,51.5333,66.18,88,20,18.41,QA,1675818757
540,olinda,-8.0089,-34.8553,80.33,61,20,5.75,BR,1675818646
541,fukue,32.6881,128.8419,53.91,62,11,14.54,JP,1675818944
542,inuvik,68.3499,-133.7218,-19.12,97,100,5.01,CA,1675818954
543,nizwa,22.9333,57.5333,66.97,42,8,2.68,OM,1675818955
544,maumere,-8.6199,122.2111,83.28,73,30,7.38,ID,1675818957
545,palana,59.1167,159.9667,-12.86,97,99,10.98,RU,1675818958
546,sakskobing,54.7997,11.626,30.09,91,100,8.32,DK,1675818958
547,puerto quijarro,-17.7833,-57.7667,75.63,83,77,1.5,BO,1675818841
548,rodrigues alves,-7.738,-72.6509,72.21,95,82,0.2,BR,1675818969
549,staryy nadym,65.6118,72.6842,-5.8,94,100,11.14,RU,1675818981
550,shagonar,51.5333,92.8,-14.01,99,100,1.86,RU,1675818981
551,baruun-urt,46.6806,113.2792,-3.21,89,4,6.58,MN,1675818982
552,matara,5.9485,80.5353,73.78,92,73,6.64,LK,1675818983
553,shirokiy,49.758,129.523,-12.08,85,100,1.19,RU,1675819002
554,usevya,-7.1,31.2333,64.4,92,100,3.13,TZ,1675819003
555,ferrol,43.4832,-8.2369,44.67,66,96,17.67,ES,1675819004
556,saryg-sep,51.5,95.6,-10.05,99,100,2.75,RU,1675819005
557,asbe teferi,9.0833,40.8667,58.44,61,0,2.68,ET,1675819006
558,marrakesh,31.6315,-8.0083,50.07,71,40,2.3,MA,1675819007
559,boguchany,58.3814,97.4531,9.09,97,100,2.51,RU,1675819007
560,grand-lahou,5.1367,-5.0242,78.55,88,67,5.82,CI,1675819018
561,maribo,54.7766,11.5002,30.94,93,100,8.28,DK,1675819020
562,sorong,-0.8833,131.25,79.81,82,100,4.23,ID,1675819021
563,nushki,29.5542,66.0215,58.28,30,100,7.0,PK,1675819023
564,pilar,-9.5972,-35.9567,73.33,79,100,4.32,BR,1675818764
565,sibut,5.718,19.0739,73.78,19,7,3.15,CF,1675819035
