City_ID,City,Lat,Lng,Max Temp,Humidity,Cloudiness,Wind Speed,Country,Date
0,albany,42.6001,-73.9662,39.94,75,92,1.01,US,1675711222
1,zaliztsi,49.7919,25.373,14.9,94,45,6.44,UA,1675711245
2,busselton,-33.65,115.3333,66.85,78,84,12.08,AU,1675711245
3,newport,51.5877,-2.9984,43.68,87,53,2.28,GB,1675711145
4,ushuaia,-54.8,-68.3,56.86,62,75,18.41,AR,1675711246
5,padang,-0.9492,100.3543,76.6,75,100,4.41,ID,1675711001
6,hailar,49.2,119.7,-14.94,100,82,5.1,CN,1675711248
7,kapaa,22.0752,-159.319,77.32,85,40,17.27,US,1675711251
8,port lincoln,-34.7333,135.8667,62.2,85,0,14.79,AU,1675711252
9,punta arenas,-53.15,-70.9167,64.51,48,40,29.93,CL,1675711086
10,saskylakh,71.9167,114.0833,-20.97,99,99,3.94,RU,1675711253
11,mwense,-10.3845,28.698,67.06,92,100,2.19,ZM,1675711253
12,east london,-33.0153,27.9116,76.98,82,100,20.85,ZA,1675711254
13,cidreira,-30.1811,-50.2056,77.85,65,29,9.98,BR,1675711254
14,rikitea,-23.1203,-134.9692,78.44,74,7,6.8,PF,1675711061
15,tomohon,1.3346,124.8392,67.14,90,100,1.01,ID,1675711255
16,castro,-24.7911,-50.0119,79.65,49,14,4.29,BR,1675711256
17,la grande,45.3246,-118.0877,40.73,68,100,3.78,US,1675711256
18,mataura,-46.1927,168.8643,60.35,57,77,9.17,NZ,1675711256
19,port hawkesbury,45.6169,-61.3485,41.18,95,100,6.91,CA,1675711257
20,sur,22.5667,59.5289,71.29,63,45,3.62,OM,1675711257
21,atuona,-9.8,-139.0333,78.44,73,0,14.83,PF,1675711258
22,torbay,47.6666,-52.7314,39.38,95,100,12.66,CA,1675711258
23,smithers,54.7804,-127.1743,39.52,87,100,13.8,CA,1675711258
24,kieta,-6.2167,155.6333,75.54,95,100,5.21,PG,1675711259
25,dakar,14.6937,-17.4441,74.28,70,18,22.82,SN,1675710900
26,cape town,-33.9258,18.4232,76.12,83,20,12.66,ZA,1675711241
27,nikolskoye,59.7035,30.7861,28.29,95,98,4.68,RU,1675711259
28,lagos,6.5833,3.75,80.83,83,100,7.61,NG,1675710855
29,butaritari,3.0707,172.7902,80.44,82,42,18.45,KI,1675711260
30,monrovia,6.3005,-10.7969,80.37,84,90,11.16,LR,1675711260
31,petropavlovsk-kamchatskiy,53.0452,158.6483,5.59,72,75,8.95,RU,1675711016
32,nola,40.922,14.5329,39.4,69,100,8.7,IT,1675711261
33,ixtapa,20.7,-105.2,78.03,44,0,8.05,MX,1675711262
34,namibe,-15.1961,12.1522,71.58,79,99,7.9,AO,1675710994
35,upernavik,72.7868,-56.1549,-10.05,94,100,9.28,GL,1675711267
36,vaini,-21.2,-175.2,78.73,73,100,2.35,TO,1675711269
37,saint george,37.1041,-113.5841,49.42,54,0,5.75,US,1675711012
38,hermanus,-34.4187,19.2345,72.81,86,19,11.72,ZA,1675711273
39,ayan,56.45,138.1667,-16.28,79,54,9.19,RU,1675711275
40,yellowknife,62.456,-114.3525,-12.48,77,20,4.61,CA,1675711143
41,barrow,71.2906,-156.7887,-7.58,77,100,3.44,US,1675711280
42,coaticook,45.1334,-71.7991,28.17,86,100,8.21,CA,1675711281
43,lompoc,34.6391,-120.4579,64.02,62,0,21.99,US,1675711043
44,poum,-20.2333,164.0167,81.25,82,100,16.37,NC,1675711282
45,victoria,22.2855,114.1577,68.95,90,100,8.01,HK,1675711232
46,hilo,19.7297,-155.09,72.1,99,100,5.75,US,1675710777
47,arraial do cabo,-22.9661,-42.0278,85.86,58,40,9.22,BR,1675711284
48,hobart,-42.8794,147.3294,54.05,81,20,3.44,AU,1675711207
49,zyryanka,65.75,150.85,-26.91,99,100,2.64,RU,1675711286
50,sinjar,36.3209,41.8754,46.8,69,65,14.45,IQ,1675711287
51,pimentel,-6.8367,-79.9342,84.49,54,0,13.8,PE,1675711291
52,atar,20.5169,-13.0499,70.52,19,0,11.88,MR,1675711292
53,ostrovnoy,68.0531,39.5131,23.5,96,100,11.14,RU,1675711292
54,zaterechnyy,44.7931,45.2097,29.88,88,100,13.67,RU,1675711294
55,anadyr,64.75,177.4833,-15.52,75,75,13.42,RU,1675711294
56,bilma,18.6853,12.9164,69.46,13,70,10.04,NE,1675711295
57,kidal,18.4411,1.4078,83.14,11,21,9.98,ML,1675711295
58,ahipara,-35.1667,173.1667,64.15,86,22,6.44,NZ,1675711296
59,kalmunai,7.4167,81.8167,76.06,89,99,5.88,LK,1675711296
60,hami,42.8,93.45,33.31,41,100,3.96,CN,1675711297
61,husavik,66.0449,-17.3389,30.52,74,44,18.37,IS,1675711074
62,altea,38.5989,-0.0514,50.79,77,100,16.17,ES,1675711299
63,black river,18.0264,-77.8487,83.62,59,29,7.94,JM,1675711299
64,narsaq,60.9167,-46.05,8.82,67,80,8.05,GL,1675711300
65,barcelos,41.5388,-8.6151,57.34,58,0,4.68,PT,1675711069
66,los llanos de aridane,28.6585,-17.9182,60.55,77,40,19.57,ES,1675711300
67,bluff,-46.6,168.3333,60.42,73,88,17.87,NZ,1675711301
68,buala,-8.145,159.5921,78.31,85,99,6.38,SB,1675711301
69,glenwood springs,39.5505,-107.3248,37.4,46,88,5.99,US,1675711129
70,jamestown,42.097,-79.2353,31.59,97,100,4.61,US,1675711302
71,kochi,9.9399,76.2602,77.02,81,85,4.63,IN,1675711208
72,meulaboh,4.1363,96.1285,73.81,90,100,7.0,ID,1675711302
73,leningradskiy,69.3833,178.4167,-29.36,98,99,7.81,RU,1675711302
74,matamoros,25.5333,-103.25,77.11,19,0,11.5,MX,1675711303
75,mpanda,-6.3655,31.0409,65.39,94,100,2.1,TZ,1675711303
76,caravelas,-17.7125,-39.2481,85.03,60,0,11.43,BR,1675711304
77,geraldton,-28.7667,114.6,66.61,77,100,6.91,AU,1675711049
78,hithadhoo,-0.6,73.0833,81.23,69,72,11.14,MV,1675711304
79,avarua,-21.2078,-159.775,82.45,83,75,11.5,CK,1675711305
80,longyearbyen,78.2186,15.6401,30.04,93,100,19.57,SJ,1675711306
81,lovozero,68.005,35.0117,22.01,82,100,7.18,RU,1675711306
82,aguimes,27.9054,-15.4461,60.66,59,20,9.22,ES,1675711229
83,varberg,57.1056,12.2508,35.06,91,6,9.22,SE,1675711307
84,tessalit,20.1986,1.0114,79.12,10,82,8.25,ML,1675711307
85,hambantota,6.1241,81.1185,76.01,88,100,10.58,LK,1675711308
86,dunedin,-45.8742,170.5036,58.33,84,1,5.84,NZ,1675711226
87,kodiak,57.79,-152.4072,33.31,64,0,4.61,US,1675711308
88,bronnoysund,65.4625,12.1997,42.8,100,75,21.0,NO,1675711309
89,fairbanks,64.8378,-147.7164,-2.24,71,75,0.0,US,1675711243
90,carnarvon,-24.8667,113.6333,75.97,72,0,19.98,AU,1675711309
91,emba,48.8264,58.1442,3.18,93,75,5.88,KZ,1675711310
92,saldanha,-33.0117,17.9442,66.25,96,71,18.01,ZA,1675711310
93,lagoa,39.05,-27.9833,55.87,71,96,28.19,PT,1675711311
94,provideniya,64.3833,-173.3,-10.46,97,89,4.41,RU,1675711311
95,tiksi,71.6872,128.8694,-31.79,100,85,5.84,RU,1675711311
96,vryburg,-26.9566,24.7284,74.03,52,100,5.08,ZA,1675711312
97,chokurdakh,70.6333,147.9167,-23.78,98,100,3.94,RU,1675711312
98,rawson,-43.3002,-65.1023,82.53,32,93,22.48,AR,1675711121
99,visby,57.6409,18.296,30.06,100,0,5.75,SE,1675711313
100,new norfolk,-42.7826,147.0587,53.71,61,1,1.99,AU,1675711313
101,batagay,67.6333,134.6333,-51.36,99,95,1.99,RU,1675711314
102,west bay,19.3667,-81.4167,83.07,77,20,12.66,KY,1675711231
103,vallenar,-28.5708,-70.7581,88.41,32,0,10.89,CL,1675711315
104,puerto ayora,-0.7393,-90.3518,85.96,82,43,11.01,EC,1675711239
105,sao jose da coroa grande,-8.8978,-35.1478,81.37,67,100,10.58,BR,1675711315
106,tuktoyaktuk,69.4541,-133.0374,-43.6,66,75,4.61,CA,1675711315
107,lingao,19.9103,109.6859,69.66,92,3,11.36,CN,1675711316
108,havelock,34.8791,-76.9013,61.95,46,0,17.27,US,1675710748
109,mizdah,31.4451,12.9801,50.86,54,88,8.95,LY,1675711317
110,saint-philippe,-21.3585,55.7679,78.39,85,86,12.21,RE,1675711318
111,hovd,48.0056,91.6419,1.92,87,5,1.45,MN,1675711318
112,broome,42.2506,-75.833,36.86,81,100,16.11,US,1675711319
113,yulara,-25.2406,130.9889,73.02,21,0,7.47,AU,1675711320
114,khatanga,71.9667,102.5,-41.4,100,58,3.65,RU,1675711320
115,custoias,41.1053,-7.321,41.04,59,0,6.53,PT,1675711320
116,vitim,59.4511,112.5578,-5.87,99,100,1.54,RU,1675711321
117,iki-burul,45.8208,44.6472,26.04,91,100,17.94,RU,1675711321
118,ponta do sol,32.6667,-17.1,61.43,60,16,8.77,PT,1675711322
119,agirish,61.9247,63.0231,-13.16,100,97,3.62,RU,1675711323
120,bogovarovo,58.9785,47.0246,-5.24,100,100,0.22,RU,1675711326
121,florianopolis,-27.6146,-48.5012,82.54,74,20,12.66,BR,1675711329
122,buchanan,5.8808,-10.0467,80.24,82,19,9.42,LR,1675711331
123,aklavik,68.2191,-135.0107,-32.8,75,100,2.3,CA,1675711332
124,georgetown,5.4112,100.3354,76.95,93,20,5.75,MY,1675711062
125,shimoda,34.6667,138.95,49.75,54,100,5.46,JP,1675711335
126,shelton,41.3165,-73.0932,52.84,53,0,20.71,US,1675710855
127,port alfred,-33.5906,26.891,72.18,90,100,4.0,ZA,1675711353
128,yairipok,24.6667,94.0667,47.68,67,0,1.5,IN,1675711353
129,keningau,5.3378,116.1602,71.11,99,66,1.19,MY,1675711354
130,pak phanang,8.3511,100.202,76.64,82,99,3.65,TH,1675711354
131,bredasdorp,-34.5322,20.0403,71.11,88,94,9.13,ZA,1675711355
132,hamilton,39.1834,-84.5333,48.6,55,0,5.75,US,1675711130
133,qaanaaq,77.484,-69.3632,-15.03,99,100,2.3,GL,1675711355
134,sitka,57.0531,-135.33,37.29,87,100,11.5,US,1675711356
135,sao joao da barra,-21.6403,-41.0511,80.69,87,92,5.32,BR,1675711356
136,airai,-8.9266,125.4092,60.33,93,99,1.41,TL,1675711357
137,mkushi,-13.6202,29.3939,64.02,96,100,2.48,ZM,1675711357
138,whitehorse,60.7161,-135.0538,29.17,54,20,16.11,CA,1675711264
139,luderitz,-26.6481,15.1594,65.62,88,10,12.93,NA,1675711330
140,ribeira grande,38.5167,-28.7,57.78,72,40,24.0,PT,1675711358
141,kaitangata,-46.2817,169.8464,55.71,76,13,6.11,NZ,1675711359
142,coracora,-15.0333,-73.7833,55.69,72,89,7.29,PE,1675711359
143,acajutla,13.5928,-89.8275,87.67,41,0,8.5,SV,1675711360
144,camargo,27.6667,-105.1667,76.21,12,52,9.44,MX,1675711193
145,deblin,51.5591,21.8483,23.58,59,18,5.08,PL,1675711361
146,nome,64.5011,-165.4064,5.07,72,0,0.0,US,1675711362
147,andros town,24.7,-77.7667,76.64,71,1,13.62,BS,1675711362
148,souillac,-20.5167,57.5167,79.18,83,40,6.91,MU,1675711364
149,haines junction,60.7522,-137.5108,33.75,37,42,13.8,CA,1675711365
150,westport,41.1415,-73.3579,51.84,54,0,20.71,US,1675711366
151,chuy,-33.6971,-53.4616,82.35,42,100,9.84,UY,1675711367
152,codrington,-38.2667,141.9667,56.48,85,75,5.21,AU,1675711368
153,sabinas,27.85,-101.1167,77.79,32,79,13.51,MX,1675711369
154,belle fourche,44.6714,-103.8522,42.31,64,100,23.89,US,1675711371
155,fortuna,40.5982,-124.1573,49.35,78,0,8.05,US,1675711372
156,cherskiy,68.75,161.3,-37.35,100,100,5.23,RU,1675711373
157,makakilo city,21.3469,-158.0858,79.12,68,20,13.8,US,1675711374
158,kruisfontein,-34.0033,24.7314,72.88,92,48,3.47,ZA,1675711358
159,popondetta,-8.7537,148.2534,73.44,98,100,2.42,PG,1675711377
160,port-gentil,-0.7193,8.7815,82.36,83,20,5.75,GA,1675711378
161,iaciara,-14.0958,-46.6317,74.61,81,100,1.3,BR,1675711379
162,xingcheng,40.6167,120.7167,25.66,44,100,2.8,CN,1675711380
163,norman wells,65.282,-126.8329,-16.56,76,75,0.0,CA,1675711380
164,lasa,46.6166,10.7002,36.48,96,62,4.14,IT,1675711381
165,owerri,5.4833,7.0304,84.15,64,64,8.79,NG,1675711388
166,mount isa,-20.7333,139.5,76.77,100,100,6.91,AU,1675711390
167,viytivka,48.426,29.5429,25.34,73,100,13.09,UA,1675711393
168,suntar,62.1444,117.6319,-42.95,100,95,2.55,RU,1675711395
169,luanda,-8.8368,13.2343,80.6,78,40,10.36,AO,1675711406
170,yantal,56.8471,105.2542,8.13,95,100,6.06,RU,1675711407
171,pedasi,7.5333,-80.0333,92.07,71,5,14.47,PA,1675711409
172,kloulklubed,7.0419,134.2556,75.7,77,100,19.44,PW,1675711410
173,san lucas,16.6,-92.7167,79.56,36,1,2.86,MX,1675711413
174,hasaki,35.7333,140.8333,43.21,51,100,7.02,JP,1675711414
175,manjacaze,-24.7117,33.8828,74.08,89,52,13.42,MZ,1675711415
176,athens,37.9795,23.7162,39.33,82,100,10.0,GR,1675711257
177,mazamet,43.49,2.373,44.08,89,0,2.3,FR,1675711417
178,sri aman,1.2376,111.4621,73.45,100,100,0.0,MY,1675711418
179,mamakan,57.8161,114.0028,-2.07,100,100,1.28,RU,1675711419
180,lebu,-37.6167,-73.65,64.81,65,0,19.13,CL,1675711421
181,kaili,-3.4626,120.2147,67.93,93,100,3.0,ID,1675711422
182,saint-joseph,-21.3667,55.6167,77.38,83,75,11.7,RE,1675711423
183,havre-saint-pierre,50.2334,-63.5986,14.0,61,100,5.75,CA,1675711423
184,amvrosiyivka,47.7935,38.4777,24.21,72,100,15.77,UA,1675711425
185,jiazi,22.8779,116.067,64.02,91,8,4.18,CN,1675711425
186,aracoiaba,-4.3711,-38.8142,84.11,65,89,7.09,BR,1675711427
187,mahebourg,-20.4081,57.7,80.26,83,40,6.91,MU,1675711428
188,severnyy,50.677,36.5532,23.04,85,100,4.47,RU,1675711429
189,moron,-34.6534,-58.6198,93.94,37,0,5.88,AR,1675711431
190,luganville,-15.5333,167.1667,78.53,83,100,6.53,VU,1675711433
191,porto novo,6.4965,2.6036,84.02,82,100,11.23,BJ,1675711434
192,hirara,24.8,125.2833,69.17,83,67,14.65,JP,1675711435
193,cockburn town,21.4612,-71.1419,80.56,65,40,16.11,TC,1675711437
194,pringsewu,-5.3582,104.9744,73.38,92,100,1.1,ID,1675711438
195,tasiilaq,65.6145,-37.6368,14.16,91,99,4.99,GL,1675711439
196,ortakoy,38.7373,34.0387,28.65,96,100,17.83,TR,1675711440
197,bonavista,48.6499,-53.1147,26.46,95,100,12.35,CA,1675711441
198,pangnirtung,66.1451,-65.7125,-31.0,68,20,2.3,CA,1675711443
199,ovre ardal,61.3167,7.8,34.68,95,100,2.62,NO,1675711353
200,ayagoz,47.9714,80.4392,16.99,97,94,4.97,KZ,1675711448
201,vicuna,-30.0319,-70.7081,90.77,36,0,10.29,CL,1675711450
202,alice springs,-23.7,133.8833,65.75,68,40,5.75,AU,1675711432
203,udachnyy,66.4167,112.4,-29.02,99,99,2.57,RU,1675711453
204,paredon,16.0333,-93.8667,90.14,38,0,3.98,MX,1675711456
205,kurilsk,45.2333,147.8833,22.41,66,100,18.3,RU,1675711459
206,houlton,46.1262,-67.8403,26.73,61,0,16.11,US,1675711463
207,kasongo-lunda,-6.4667,16.8167,73.56,80,100,2.3,CD,1675711466
208,ishurdi,24.1333,89.0833,64.11,38,0,2.33,BD,1675711468
209,estelle,29.8458,-90.1067,72.0,50,20,9.22,US,1675711473
210,lengshuitan,26.4111,111.5956,49.98,92,100,3.94,CN,1675711474
211,sawakin,19.1059,37.3321,75.54,78,72,11.65,SD,1675711476
212,severo-kurilsk,50.6789,156.125,24.75,70,100,8.03,RU,1675711479
213,santa lucia,27.9117,-15.5407,55.76,59,20,9.22,ES,1675711480
214,kwinana,-32.25,115.7667,66.18,87,0,3.0,AU,1675711481
215,dikson,73.5069,80.5464,-10.98,100,100,5.3,RU,1675711458
216,kavieng,-2.5744,150.7967,81.01,79,100,10.25,PG,1675711428
217,talnakh,69.4865,88.3972,-9.8,98,100,5.14,RU,1675711483
218,ramnagar,29.4,79.1167,59.09,46,0,5.19,IN,1675711324
219,vila velha,-20.3297,-40.2925,84.15,79,40,6.91,BR,1675711485
220,shenjiamen,29.9576,122.298,48.99,96,100,11.25,CN,1675711486
221,magistralnyy,56.1725,107.4458,8.69,93,100,3.53,RU,1675711487
222,rosarito,32.3333,-117.0333,63.63,54,0,8.93,MX,1675711489
223,ancud,-41.8697,-73.8203,62.62,64,0,8.21,CL,1675711490
224,turka,49.1541,23.0297,14.79,97,100,2.13,UA,1675711493
225,inta,66.0317,60.1659,0.01,97,100,7.85,RU,1675711494
226,tripoli,32.8752,13.1875,53.8,56,96,7.83,LY,1675711495
227,naifaru,5.4444,73.3657,80.69,75,100,9.66,MV,1675711297
228,manaure,11.7751,-72.4445,87.49,49,10,24.11,CO,1675711498
229,xucheng,20.35,110.1288,67.84,96,57,10.96,CN,1675711500
230,letka,59.6011,49.4232,-6.03,100,100,1.01,RU,1675711503
231,castro verde,37.6983,-8.0858,53.02,69,10,6.96,PT,1675711380
232,sola,-13.8833,167.55,81.43,73,99,5.03,VU,1675711370
233,torquay,50.4638,-3.5143,41.68,91,10,3.98,GB,1675711510
234,touros,-5.1989,-35.4608,83.35,67,3,14.03,BR,1675711514
235,port elizabeth,-33.918,25.5701,75.09,92,20,7.0,ZA,1675711455
236,sao sebastiao,-23.76,-45.4097,78.58,87,100,1.81,BR,1675711517
237,amursk,50.2261,136.8994,-13.59,100,100,2.3,RU,1675711520
238,ust-nera,64.5667,143.2,-39.1,100,100,1.68,RU,1675711522
239,tazovskiy,67.4667,78.7,-12.3,100,100,4.72,RU,1675711527
240,conde,-7.2597,-34.9075,80.06,78,75,10.36,BR,1675711535
241,sao felix do xingu,-6.6447,-51.995,87.69,58,47,3.13,BR,1675711536
242,west wendover,40.7391,-114.0733,38.41,56,75,19.57,US,1675711537
243,roald,62.5833,6.1333,49.12,71,75,20.71,NO,1675711538
244,coihaique,-45.5752,-72.0662,66.15,42,0,10.36,CL,1675711540
245,beyneu,45.3167,55.2,34.21,81,100,14.67,KZ,1675711540
246,buraydah,26.326,43.975,63.05,28,100,7.83,SA,1675711542
247,faanui,-16.4833,-151.75,81.27,74,8,16.2,PF,1675711333
248,bathsheba,13.2167,-59.5167,83.01,65,40,20.71,BB,1675711544
249,karpathos,35.507,27.2132,48.16,66,52,20.71,GR,1675711547
250,gudalur,9.6833,77.2667,68.16,70,100,0.6,IN,1675711549
251,lixourion,38.2019,20.4314,42.8,52,75,6.91,GR,1675711550
252,maceio,-9.6658,-35.7353,80.04,89,75,8.05,BR,1675711319
253,lavrentiya,65.5833,-171.0,-19.25,90,40,4.94,RU,1675711553
254,pangoa,-12.1167,-73.0,74.52,84,99,3.15,PE,1675711554
255,aykhal,66.0,111.5,-32.94,100,99,3.89,RU,1675711536
256,kushmurun,52.4503,64.6311,-1.97,99,91,3.87,KZ,1675711556
257,alofi,-19.0595,-169.9187,76.89,94,67,4.61,NU,1675711557
258,erdenet,49.0333,104.0833,-7.08,100,64,3.69,MN,1675711558
259,chirongui,-12.9319,45.1483,78.73,78,100,6.49,YT,1675711428
260,teguise,29.0605,-13.564,59.22,59,40,5.75,ES,1675711561
261,upata,8.0086,-62.3989,88.29,35,28,7.47,VE,1675711563
262,borborema,-21.6197,-49.0736,81.77,70,77,9.17,BR,1675711568
263,zheleznodorozhnyy,55.7503,38.0042,22.55,100,88,2.66,RU,1675711571
264,thompson,55.7435,-97.8558,19.56,86,100,5.75,CA,1675711425
265,minab,27.1467,57.0801,59.32,82,98,0.0,IR,1675711575
266,shingu,33.7333,135.9833,47.89,54,100,4.43,JP,1675711581
267,korla,41.7597,86.1469,32.38,53,100,0.63,CN,1675711584
268,kaduqli,11.0167,29.7167,80.1,14,33,7.96,SD,1675711585
269,ondangwa,-17.9167,15.95,80.38,42,100,5.82,NA,1675711589
270,saginaw,43.3334,-84.0333,34.68,69,40,0.0,US,1675711595
271,pacific grove,36.6177,-121.9166,56.89,71,0,11.01,US,1675711432
272,liku,-0.7275,119.8922,73.89,92,87,1.9,ID,1675711598
273,brae,60.3964,-1.353,47.68,75,97,23.62,GB,1675711600
274,marawi,7.9986,124.2928,66.83,92,100,2.17,PH,1675711434
275,butajira,8.1167,38.3667,61.48,33,87,8.08,ET,1675711603
276,muros,42.7762,-9.0603,51.84,61,0,11.83,ES,1675711374
277,xiaoweizhai,26.1903,107.5125,49.1,97,100,2.57,CN,1675711605
278,chateaubelair,13.2833,-61.25,79.32,69,40,14.97,VC,1675711606
279,rio gallegos,-51.6226,-69.2181,71.65,73,75,29.93,AR,1675711608
280,henties bay,-22.116,14.2845,65.05,87,77,6.53,NA,1675711609
281,omaruru,-21.4333,15.9333,73.96,59,88,3.85,NA,1675711610
282,saint-augustin,51.226,-58.6502,7.75,72,100,9.62,CA,1675711611
283,fare,-16.7,-151.0167,80.71,76,0,16.4,PF,1675711407
284,placido de castro,-10.3353,-67.1856,73.08,99,100,1.61,BR,1675711615
285,pevek,69.7008,170.3133,-34.33,100,100,3.29,RU,1675711427
286,key largo,25.0865,-80.4473,79.0,73,36,14.36,US,1675711617
287,kletskaya,49.3145,43.0584,14.05,93,79,8.57,RU,1675711619
288,sao miguel do araguaia,-13.275,-50.1628,87.31,58,45,1.01,BR,1675711496
289,rincon,32.296,-81.2354,67.96,33,0,5.75,US,1675711475
290,bukan,36.521,46.2089,33.51,89,76,6.55,IR,1675711623
291,port hardy,50.6996,-127.4199,44.78,93,100,16.11,CA,1675711468
292,mareeba,-17.0,145.4333,74.12,93,31,2.3,AU,1675711625
293,norsup,-16.0667,167.3833,79.84,82,100,7.4,VU,1675711627
294,samarai,-10.6167,150.6667,77.95,87,100,10.71,PG,1675711408
295,sakit,27.45,78.8167,62.2,52,0,5.14,IN,1675711629
296,margate,51.3813,1.3862,40.89,90,8,1.99,GB,1675711631
297,kupang,-10.1667,123.5833,77.97,84,98,11.14,ID,1675711541
298,beidao,34.5686,105.8933,39.38,47,97,2.62,CN,1675711633
299,kachiry,53.0675,76.1036,-8.82,100,95,4.65,KZ,1675711634
300,coruripe,-10.1256,-36.1756,81.66,69,100,13.38,BR,1675711636
301,calatayud,41.3535,-1.6432,38.64,76,29,4.52,ES,1675711637
302,itoman,26.1247,127.6694,68.4,94,100,11.5,JP,1675711646
303,huarmey,-10.0681,-78.1522,75.67,75,79,7.85,PE,1675711550
304,semey,50.4111,80.2275,6.08,95,59,5.12,KZ,1675711649
305,okhotsk,59.3833,143.3,-11.27,80,99,11.1,RU,1675711651
306,bethel,41.3712,-73.414,50.31,59,100,13.8,US,1675711475
307,savonlinna,61.8699,28.88,19.45,93,40,2.3,FI,1675711653
308,toro,4.6117,-76.0814,84.88,54,40,0.89,CO,1675711654
309,hermiston,45.8404,-119.2895,52.45,59,0,19.57,US,1675711655
310,mangaratiba,-22.9597,-44.0406,81.46,79,100,3.04,BR,1675711656
311,surt,31.2089,16.5887,55.78,53,93,7.31,LY,1675711634
312,catumbela,-12.4314,13.5472,77.07,80,100,5.41,AO,1675711658
313,mar del plata,-38.0023,-57.5575,73.83,61,0,17.27,AR,1675711485
314,the valley,18.217,-63.0578,80.82,65,20,18.41,AI,1675711540
315,meaux,48.9167,3.0,39.27,77,0,9.6,FR,1675711398
316,hofn,64.2539,-15.2082,35.62,87,100,16.11,IS,1675711369
317,mount gambier,-37.8333,140.7667,53.62,94,9,4.61,AU,1675711551
318,waipawa,-41.4122,175.5153,58.41,81,1,4.76,NZ,1675711391
319,moose factory,51.2585,-80.6094,12.2,57,100,14.97,CA,1675711554
320,palmer,42.1584,-72.3287,47.98,56,100,7.0,US,1675711666
321,yorkton,51.2167,-102.4677,33.64,80,40,26.46,CA,1675711626
322,belaya gora,68.5333,146.4167,-24.27,99,100,2.51,RU,1675711547
323,winnemucca,40.973,-117.7357,35.47,59,27,7.61,US,1675711669
324,taltal,-25.4,-70.4833,72.59,71,15,4.88,CL,1675711670
325,saint-georges,12.0564,-61.7485,82.08,74,75,23.02,GD,1675711521
326,launceston,-41.45,147.1667,52.16,85,0,6.91,AU,1675711673
327,abu samrah,35.3029,37.1841,44.33,78,85,25.99,SY,1675711622
328,saint-leu,-21.15,55.2833,77.86,78,70,3.58,RE,1675711676
329,magalia,39.8121,-121.5783,48.31,52,1,3.56,US,1675711676
330,doha,25.2867,51.5333,67.98,83,0,8.05,QA,1675711417
331,camopi,3.1655,-52.3158,77.31,96,93,4.85,GF,1675711679
332,quelimane,-17.8786,36.8883,82.35,83,40,3.44,MZ,1675711680
333,sandusky,41.3501,-83.1332,36.41,71,40,1.01,US,1675711681
334,nalut,30.3333,10.85,54.25,45,95,9.82,LY,1675711536
335,lujan,-34.5703,-59.105,93.13,34,0,7.0,AR,1675711684
336,naze,28.3667,129.4833,63.52,88,6,12.39,JP,1675711553
337,puerto leguizamo,-0.1934,-74.7819,83.21,67,76,5.7,CO,1675711685
338,aquidauana,-20.4711,-55.7872,82.58,65,74,2.68,BR,1675711685
339,urusha,54.05,122.9,-27.56,99,15,3.29,RU,1675711686
340,rocha,-34.4833,-54.3333,84.45,40,2,14.07,UY,1675711687
341,quatre cocos,-20.2078,57.7625,80.1,80,51,14.29,MU,1675711473
342,coahuayana,18.7333,-103.6833,89.22,40,0,7.27,MX,1675711602
343,pont-rouge,46.7566,-71.6978,24.42,72,91,2.1,CA,1675711689
344,clarence town,-32.5833,151.7833,73.85,96,9,2.01,AU,1675711494
345,nicoya,10.1483,-85.452,91.83,39,0,17.2,CR,1675711691
346,komsomolskiy,40.4272,71.7189,38.12,87,100,6.91,UZ,1675711672
347,bucerias,20.75,-105.3333,78.78,44,0,8.05,MX,1675711470
348,sisimiut,66.9395,-53.6735,-1.44,96,100,6.82,GL,1675711435
349,bandarbeyla,9.4942,50.8122,75.38,76,85,17.05,SO,1675711538
350,fuzhou,26.0614,119.3061,55.29,97,96,1.5,CN,1675711695
351,deputatskiy,69.3,139.9,-25.29,97,100,3.62,RU,1675711607
352,wilkie,52.4168,-108.7014,26.98,77,22,10.0,CA,1675711696
353,isangel,-19.55,169.2667,79.43,84,16,5.61,VU,1675711437
354,gryazi,52.4966,39.9359,10.62,96,54,5.91,RU,1675711698
355,wanning,18.8003,110.3967,71.87,91,55,2.51,CN,1675711558
356,balaghat,21.8,80.1833,65.07,30,0,1.32,IN,1675711631
357,greenock,55.9484,-4.7612,46.49,84,100,10.04,GB,1675711702
358,sangre grande,10.5835,-61.1177,82.36,78,100,11.07,TT,1675711703
359,marsh harbour,26.5412,-77.0636,73.44,64,0,15.12,BS,1675711603
360,slantsy,59.1182,28.0914,24.73,95,33,4.74,RU,1675711704
361,fujin,47.26,132.0322,-12.91,100,21,5.06,CN,1675711705
362,arzgir,45.3728,44.2206,28.04,95,100,15.41,RU,1675711706
363,locri,38.2414,16.2623,39.33,55,100,5.66,IT,1675711623
364,narsipatnam,17.6667,82.6167,66.78,60,17,2.3,IN,1675711708
365,sorong,-0.8833,131.25,78.1,84,100,6.22,ID,1675711709
366,bilibino,68.0546,166.4372,-34.85,100,98,1.43,RU,1675711712
367,pontes e lacerda,-15.2261,-59.3353,75.07,87,100,3.89,BR,1675711713
368,cabo san lucas,22.8909,-109.9124,82.71,42,0,4.61,MX,1675711031
369,bridgetown,13.1,-59.6167,82.89,65,40,20.71,BB,1675711441
370,najran,17.4924,44.1277,72.25,46,53,7.38,SA,1675711468
371,pisco,-13.7,-76.2167,82.45,65,0,19.57,PE,1675711612
372,banihal,33.4167,75.2,32.72,81,19,3.51,IN,1675711718
373,fez,34.0372,-4.9998,52.05,66,0,4.61,MA,1675711523
374,rostovka,55.3842,71.8891,-7.76,100,100,3.94,RU,1675711720
375,broken hill,-31.95,141.4333,70.32,34,4,10.31,AU,1675711721
376,gladstone,-23.85,151.25,75.13,78,89,10.36,AU,1675711573
377,aketi,2.7388,23.7833,78.08,36,9,1.95,CD,1675711723
378,kudahuvadhoo,2.6708,72.8944,81.03,75,100,7.61,MV,1675711724
379,honningsvag,70.9821,25.9704,38.95,87,100,29.93,NO,1675711478
380,ilek,51.5271,53.3831,-2.45,100,79,3.29,RU,1675711726
381,coquimbo,-29.9533,-71.3436,69.53,73,40,11.5,CL,1675711727
382,dubovskoye,47.4092,42.7575,23.58,80,100,14.99,RU,1675711728
383,la palma,33.8464,-118.0467,67.77,41,0,1.99,US,1675711729
384,hibbing,47.4272,-92.9377,32.4,39,75,11.5,US,1675711730
385,manaira,-7.7061,-38.1544,84.87,37,100,2.13,BR,1675711731
386,ternate,0.8,127.4,78.1,82,100,4.5,ID,1675711733
387,vredendal,-31.6683,18.5012,65.59,95,52,7.11,ZA,1675711734
388,bozhou,33.8772,115.7703,44.67,83,48,3.65,CN,1675711738
389,swan hill,-35.3378,143.5544,60.04,71,0,8.95,AU,1675711739
390,nokaneng,-19.6667,22.2667,76.8,59,100,3.96,BW,1675711740
391,nioro,13.35,-15.75,86.92,11,42,6.69,GM,1675711635
392,moyo,3.6609,31.7247,76.53,29,22,3.91,UG,1675711743
393,fugen,47.35,11.85,32.32,97,100,1.45,AT,1675711744
394,iskateley,67.6803,53.1512,-2.47,97,84,9.42,RU,1675711745
395,santa cruz,-17.8,-63.1667,87.85,55,40,16.11,BO,1675711635
396,salzkotten,51.6717,8.6009,33.67,90,40,5.75,DE,1675711747
397,gizo,-8.103,156.8419,80.37,84,100,16.08,SB,1675711521
398,sinegorye,62.0788,150.477,-30.87,100,99,0.63,RU,1675711750
399,vardo,70.3705,31.1107,30.18,93,100,39.12,NO,1675711716
400,grand gaube,-20.0064,57.6608,80.38,78,100,3.0,MU,1675711696
401,partanna,37.7278,12.8885,39.58,68,100,4.0,IT,1675711753
402,chaohu,31.6,117.8667,46.78,93,100,4.9,CN,1675711755
403,gornozavodsk,58.3758,58.3211,-0.38,100,99,1.77,RU,1675711594
404,luena,-11.7833,19.9167,62.76,94,100,3.98,AO,1675711757
405,dhidhdhoo,6.8833,73.1,80.56,75,100,8.28,MV,1675711758
406,pyaozerskiy,65.8333,31.1667,14.56,90,100,5.7,RU,1675711759
407,hamburg,53.55,10.0,31.89,93,6,2.3,DE,1675711398
408,outjo,-20.1167,16.15,70.25,44,71,12.44,NA,1675711763
409,bambous virieux,-20.3428,57.7575,80.22,83,40,6.91,MU,1675711510
410,asau,46.4333,26.4,24.28,94,73,4.97,RO,1675711552
411,viru,-8.4167,-78.75,84.45,52,27,10.56,PE,1675711767
412,katsuura,35.1333,140.3,50.77,61,100,2.91,JP,1675711497
413,te anau,-45.4167,167.7167,56.23,86,98,8.01,NZ,1675711769
414,sakakah,29.9697,40.2064,56.77,36,0,13.89,SA,1675711770
415,karsun,54.1994,46.9827,-2.94,100,98,0.83,RU,1675711771
416,hearst,49.6835,-83.6665,21.45,84,84,10.51,CA,1675711736
417,suifenhe,44.4,131.1667,2.17,87,5,4.68,CN,1675711773
418,harper,4.375,-7.7169,80.15,78,94,7.47,LR,1675711432
419,ust-ilimsk,58.0006,102.6619,4.14,98,100,3.91,RU,1675711775
420,san quintin,30.4833,-115.95,59.9,52,15,17.0,MX,1675711776
421,ulaangom,49.9811,92.0667,-9.06,97,100,2.39,MN,1675711547
422,bentiu,9.2333,29.8333,84.6,14,62,5.73,SS,1675711777
423,high rock,26.6208,-78.2833,73.42,64,0,14.67,BS,1675711636
424,bohicon,7.1783,2.0667,84.31,61,100,10.98,BJ,1675711779
425,san patricio,28.017,-97.5169,79.16,56,22,19.93,US,1675711558
426,zhigansk,66.7697,123.3711,-54.8,100,72,0.34,RU,1675711537
427,tallahassee,30.4383,-84.2807,74.08,40,0,8.05,US,1675711592
428,kibaya,-5.3,36.5667,60.42,88,100,1.1,TZ,1675711783
429,la paz centro,12.34,-86.6753,94.75,29,0,16.15,NI,1675711784
430,george,-33.963,22.4617,69.35,100,100,5.75,ZA,1675711785
431,bengkulu,-3.8004,102.2655,75.2,86,100,5.93,ID,1675711433
432,indramayu,-6.3264,108.32,79.61,81,100,9.84,ID,1675711706
433,ewa beach,21.3156,-158.0072,80.55,68,20,13.8,US,1675711789
434,port hedland,-20.3167,118.5667,82.45,83,5,6.91,AU,1675711750
435,bodden town,19.2833,-81.25,82.99,73,20,12.66,KY,1675711792
436,tura,25.5198,90.2201,58.89,42,0,2.71,IN,1675711681
437,saint-paul-les-dax,43.7272,-1.0516,46.78,72,8,4.61,FR,1675711795
438,totness,5.8833,-56.3167,78.85,82,38,11.77,SR,1675711538
439,aitape,-3.1374,142.3475,76.69,91,100,4.14,PG,1675711797
440,jalu,29.0331,21.5482,53.35,48,93,10.67,LY,1675711798
441,tari,12.4086,4.4914,86.59,12,100,10.65,NG,1675711615
442,berekum,7.4534,-2.584,87.93,28,93,2.46,GH,1675711800
443,koutsouras,35.0339,25.9469,44.11,84,48,25.12,GR,1675711801
444,andrelandia,-21.7397,-44.3092,76.15,82,97,3.15,BR,1675711803
445,filingue,14.3521,3.3168,84.47,14,99,9.55,NE,1675711803
446,lithgow,-33.4833,150.15,59.81,92,100,4.14,AU,1675711805
447,yerbogachen,61.2767,108.0108,-14.62,100,96,2.55,RU,1675711544
448,zemio,5.0314,25.1361,76.17,23,7,1.43,CF,1675711807
449,mabaruma,8.2,-59.7833,76.66,90,53,5.48,GY,1675711808
450,ilulissat,69.2167,-51.1,-3.98,77,75,6.91,GL,1675711694
451,bad hall,48.0383,14.2077,25.72,77,30,4.0,AT,1675711810
452,floro,61.5996,5.0328,45.97,70,75,17.27,NO,1675711811
453,san rafael del sur,11.8485,-86.4384,88.77,36,0,19.06,NI,1675711668
454,basoko,1.2391,23.616,77.74,47,40,3.27,CD,1675711812
455,ketchikan,55.3422,-131.6461,42.78,81,100,5.75,US,1675711737
456,changji,44.0167,87.3167,18.39,93,100,2.24,CN,1675711814
457,dudinka,69.4058,86.1778,-9.38,99,100,6.04,RU,1675711815
458,manzhouli,49.6,117.4333,-5.42,98,68,8.19,CN,1675711816
459,salalah,17.0151,54.0924,73.49,68,0,3.44,OM,1675711381
460,presidencia roque saenz pena,-26.7852,-60.4388,105.24,14,1,4.03,AR,1675711608
461,seoul,37.5683,126.9778,31.44,97,20,4.61,KR,1675711550
462,mournies,35.4764,24.0092,44.83,81,75,14.97,GR,1675711819
463,gunjur,13.2019,-16.7339,73.47,53,46,12.66,GM,1675711821
464,kiunga,-6.1219,141.2906,72.46,99,98,2.44,PG,1675711822
465,gazanjyk,39.2446,55.5154,47.79,57,1,12.28,TM,1675711823
466,pachino,36.7186,15.0907,44.76,66,93,10.29,IT,1675711824
467,ammon,43.4696,-111.9666,32.83,88,100,14.97,US,1675711583
468,tuatapere,-46.1333,167.6833,59.29,77,80,6.85,NZ,1675711543
469,cairns,-16.9167,145.7667,78.75,94,40,2.3,AU,1675711610
470,zigos,41.0167,24.3833,34.99,42,89,1.01,GR,1675711828
471,benito juarez,19.385,-99.165,70.14,16,0,5.01,MX,1675711829
472,corralillo,22.9819,-80.5856,80.96,59,8,11.9,CU,1675711831
473,sao filipe,14.8961,-24.4956,69.49,60,14,17.16,CV,1675711694
474,boguchany,58.3814,97.4531,-11.45,100,98,1.63,RU,1675711833
475,tres arroyos,-38.3739,-60.2798,84.96,33,71,16.62,AR,1675711834
476,barisal,22.7019,90.3711,63.91,74,4,5.99,BD,1675711835
477,nanortalik,60.1432,-45.2371,13.14,91,100,8.39,GL,1675711440
478,mpophomeni,-29.5682,30.1862,60.67,97,40,2.44,ZA,1675711836
479,ankara,39.9199,32.8543,32.92,68,100,1.99,TR,1675711821
480,banepa,27.6298,85.5214,50.32,82,20,3.44,NP,1675711838
481,port macquarie,-31.4333,152.9167,65.89,87,36,3.27,AU,1675711840
482,nantucket,41.2835,-70.0995,46.54,81,75,21.85,US,1675711651
483,saint-pierre,-21.3393,55.4781,78.48,73,0,8.05,RE,1675711635
484,maple creek,49.9168,-109.4848,37.45,56,13,10.36,CA,1675711843
485,itaituba,-4.2761,-55.9836,89.76,66,40,4.61,BR,1675711845
486,pitsunda,43.1592,40.3378,39.38,78,100,11.25,GE,1675711846
487,harbour breton,47.4833,-55.7983,32.41,98,100,1.52,CA,1675711847
488,tezu,27.9167,96.1667,63.88,52,100,3.53,IN,1675711517
489,general roca,-39.0333,-67.5833,94.62,22,47,2.57,AR,1675711670
490,wamba,8.9333,8.6,82.6,13,88,6.6,NG,1675711850
491,blackwater,-23.5833,148.8833,73.81,85,71,8.48,AU,1675711850
492,beaverlodge,55.2166,-119.4361,33.15,82,99,12.68,CA,1675711843
493,arlit,18.7369,7.3853,77.0,11,100,11.34,NE,1675711555
494,avera,33.194,-82.5271,67.55,37,0,2.55,US,1675711617
495,batouri,4.4333,14.3667,77.41,19,8,3.51,CM,1675711853
496,scarborough,54.2797,-0.4044,40.33,79,94,5.01,GB,1675711631
497,merrill,45.1805,-89.6835,35.82,68,0,10.36,US,1675711770
498,clyde river,70.4692,-68.5914,-27.17,68,20,4.61,CA,1675711453
499,cayenne,4.9333,-52.3333,80.64,78,75,12.66,GF,1675711662
500,hendaye,43.3717,-1.7738,46.74,73,20,3.44,FR,1675711749
501,jawhar,2.7809,45.5005,75.27,81,57,15.23,SO,1675711857
502,motygino,58.1831,94.7592,-14.49,100,100,1.77,RU,1675711858
503,portel,-1.9356,-50.8211,85.78,63,63,3.85,BR,1675711858
504,isla mujeres,21.2311,-86.731,73.45,70,21,8.93,MX,1675711859
505,trincomalee,8.5711,81.2335,78.01,84,67,12.06,LK,1675711632
506,campos do jordao,-22.7394,-45.5914,66.34,92,69,2.06,BR,1675711860
507,abu dhabi,24.4667,54.3667,69.91,76,0,5.75,AE,1675711664
508,bhadrachalam,17.6667,80.8833,67.71,49,100,2.75,IN,1675711861
509,wattegama,6.7989,81.4808,71.94,94,81,3.96,LK,1675711862
510,camacha,33.0833,-16.3333,56.62,58,40,18.41,PT,1675711863
511,cedeno,7.0464,-72.1634,83.37,56,92,0.87,CO,1675711866
512,swellendam,-34.0226,20.4417,73.18,84,72,7.92,ZA,1675711372
513,sao luiz gonzaga,-28.4083,-54.9608,97.2,12,0,6.71,BR,1675711868
514,brownsville,25.9018,-97.4975,80.6,67,75,23.02,US,1675711788
515,qandala,11.472,49.8728,74.62,76,83,5.97,SO,1675711871
516,vostok,46.4856,135.8833,-5.15,98,100,4.92,RU,1675711517
517,presidente franco,-25.5333,-54.6167,91.92,33,20,4.61,PY,1675711876
518,altay,47.8667,88.1167,18.1,91,100,4.12,CN,1675711878
519,faya,18.3851,42.4509,57.31,64,87,2.44,SA,1675711880
520,pallasovka,50.05,46.8833,13.35,92,63,10.02,RU,1675711882
521,ballina,-28.8667,153.5667,66.02,99,100,2.21,AU,1675711551
522,acapulco,16.8634,-99.8901,85.82,62,0,8.05,MX,1675711637
523,tshela,-4.9833,12.9333,70.95,96,42,0.74,CD,1675711886
524,banposh,22.25,84.8,59.49,35,1,0.87,IN,1675711889
525,vanderhoof,54.0166,-124.0198,38.08,83,63,9.37,CA,1675711813
526,hobbs,32.7026,-103.136,75.79,9,0,14.97,US,1675711896
527,awbari,26.5921,12.7805,54.34,46,74,9.48,LY,1675711900
528,guerrero negro,27.9769,-114.0611,61.52,58,99,25.12,MX,1675711629
529,kabompo,-13.5927,24.2008,65.75,94,100,4.16,ZM,1675711903
530,hobyo,5.3505,48.5268,76.6,80,11,16.93,SO,1675711843
531,san rafael,-34.6177,-68.3301,94.17,15,0,7.49,AR,1675711892
532,virtsu,58.5716,23.5115,29.98,89,70,8.23,EE,1675711911
533,terney,45.0503,136.6092,9.5,77,3,8.01,RU,1675711912
534,redlands,34.0556,-117.1825,63.14,32,0,12.66,US,1675711844
535,arica,-18.475,-70.3042,83.75,61,0,14.97,CL,1675711661
536,bhakkar,31.6253,71.0657,56.1,61,0,6.42,PK,1675711918
537,yokadouma,3.5167,15.05,76.15,22,100,0.92,CM,1675711920
538,chapais,49.7834,-74.8492,4.78,76,20,3.74,CA,1675711932
539,trinidad,-14.8333,-64.9,82.38,78,75,4.61,BO,1675711655
540,usinsk,65.9939,57.5281,-3.8,100,99,8.81,RU,1675711882
541,masuguru,-11.3667,38.4167,72.27,97,100,1.52,TZ,1675711947
542,glendive,47.1053,-104.7125,40.48,70,0,25.32,US,1675711954
543,tecoanapa,16.5167,-98.75,83.64,57,3,10.13,MX,1675711956
544,grafton,42.207,-71.6856,47.28,59,100,18.41,US,1675711957
545,ust-kuyga,70.0167,135.6,-40.76,100,100,4.65,RU,1675711959
546,vestmannaeyjar,63.4427,-20.2734,36.3,60,100,36.64,IS,1675711920
547,mayumba,-3.432,10.6554,78.85,81,69,4.38,GA,1675711702
548,borogontsy,62.6683,131.1683,-41.46,100,100,2.48,RU,1675711671
549,dingle,10.9995,122.6711,74.53,92,54,7.16,PH,1675711499
550,inirida,3.8653,-67.9239,85.35,67,61,0.63,CO,1675711807
551,olafsvik,64.8945,-23.7142,30.99,62,100,42.12,IS,1675711438
552,hornepayne,49.2138,-84.7705,26.35,88,98,11.95,CA,1675711970
553,dalvik,65.9702,-18.5286,35.53,79,100,13.27,IS,1675711796
554,kavaratti,10.5669,72.642,80.69,73,55,10.8,IN,1675711561
555,sinnamary,5.3833,-52.95,78.26,87,84,12.19,GF,1675711537
556,mackenzie,55.2999,-123.1698,35.82,80,100,20.71,CA,1675711572
557,saint-francois,46.4154,3.9054,38.64,70,75,10.36,FR,1675711595
558,prescott valley,34.5894,-112.3252,48.24,31,20,17.27,US,1675711684
559,steinbach,50.1667,8.5667,39.07,68,75,9.22,DE,1675711861
560,college,64.8569,-147.8028,-2.25,71,75,0.0,US,1675711619
561,thunder bay,48.4001,-89.3168,28.38,80,100,6.91,CA,1675711344
562,pandharpur,17.6667,75.3333,75.09,25,0,10.22,IN,1675712014
